lat,lon,camp,state,name,type,phone,sites,hookups,toilets,water,url,camp_id,url_confirmed,reservations,town,dump,showers,pets,fee
43.80086,-118.98997,Idlewild,OR,IDLE,NF,541.573.4300,40,NH,VT,DW,forestcamping.com/dow/pacficnw/mal.htm,1,0,RS,Burns,ND,NS,0,0
42.62649,-124.05745,Illahe,OR,ILLA,NF,541.247.3600,12,NH,VT,DW,forestcamping.com/dow/pacficnw/sis.htm,2,0,NR,Gold Beach,ND,NS,,
42.70382,-122.33212,Imnaha,OR,IMNA,NF,541.865.2700,5,NH,VT,DW,,3,0,NR,Butte Falls,ND,NS,,0
45.11253,-117.01311,Indian Crossing,OR,INDC,NF,541.426.4978,11,NH,VT,NW,www.roadcamping.com/rv/Oregon/Enterprise/property_2473/rv_parks_campgrounds.html,4,1,NR,Joseph,ND,NS,,
44.3577,-121.60962,Indian Ford,OR,INDF,NF,541.549.7700,25,NH,VT,NW,forestcamping.com/dow/pacficnw/desc.htm,5,0,NR,Sisters,ND,NS,,
45.1088,-122.0748,Indian Henry,OR,INDH,NF,503.630.6861,88,NH,VT,DW,forestcamping.com/dow/pacficnw/mth.htm,6,0,RS,Estacada,DP,NS,,
42.55209,-123.53866,Indian Mary Park,OR,INDM,CP,541.474.5285,90,WES,,DW,www.co.josephine.or.us/Page.asp?NavID=491,7,1,,Grants Park,DP,SH,,
43.31229,-122.1523,Inlet,OR,INLE,NF,541.498.2531,14,NH,VT,NW,forestcamping.com/dow/pacficnw/ump.htm,8,0,NR,Chemult,ND,NS,,
45.29797,-117.39539,Irondyke Forest Camp,OR,IRON,NF,541.426.4978,6,NH,VT,NW,www.eugenecarsey.com/camp/wallowa-whitman/lostine.htm,9,1,NR,Enterprise,ND,NS,,
43.33975,-122.7217,Island,OR,ISLA,NF,541.496.3532,7,NH,VT,NW,,10,0,NR,,ND,NS,,
42.722,-124.04,Island Camp,OR,ISLC,NF,541.439.6200,5,NH,VT,NW,www.reserveamerica.com/,11,1,NR,,ND,NS,,
43.74861,-122.00917,Islet,OR,ISLE,NF,541.782.2283,55,NH,VT,DW,forestcamping.com/dow/pacficnw/wil.htm,12,0,NR,Oakridge,ND,NS,,
44.4846,-121.70081,Jack Creek,OR,JACC,NF,541.549.7700,19,NH,VT,NW,forestcamping.com/dow/pacficnw/desc.htm,13,0,NR,Sisters,ND,NS,,
42.98477,-121.45304,Jackson Creek,OR,JACK,NF,541.365.7001,12,NH,VT,NW,forestcamping.com/dow/pacficnw/win.htm,14,0,NR,Chemult,ND,NS,,
42.11379,-123.0865,Jackson  Complex,OR,JACX,NF,541.899.3800,4,NH,VT,DW,forestcamping.com/dow/pacficnw/rog.htm,15,0,NR,Ruch,ND,NS,,
44.78222,-122.60889,John Neal Memorial Park,OR,JOHM,CP,541.967.3917,,NH,,DW,www.co.linn.or.us/parks/parks/johnneal.html,16,1,,Lyons,ND,NS,,
42.60775,-120.6004,Jones Crossing Forest Camp,OR,JONE,NF,541.943.3114,8,NH,VT,NW,www.eugenecarsey.com/camp/paisley/paisley.htm,17,1,NR,Paisley,ND,NS,,
45.58944,-123.55694,Jones Creek,OR,JONS,SF,503.842.2545,,NH,,,www.oregon.gov/ODF/tillamookstateforest/jonescreekcampground.shtml,18,1,NR,Tillamook,ND,NS,,
42.2423,-123.6863,Josephine Creek Camp,OR,JOSE,NF,541.471.6500,6,NH,VT,NW,,19,0,NR,Selma,ND,NS,,
42.68433,-122.61499,Joseph Stewart State Park,OR,JOSS,SP,541.560.3334,,E,,DW,www.oregonstateparks.org/park_30.php,20,0,RS,Medford,DP,SH,,L$
45.82807,-117.96376,Jubilee Lake,OR,JUBI,NF,509.522.6290,115,NH,VT,DW,forestcamping.com/dow/pacficnw/uma.htm,21,0,NR,Weston,ND,NS,,
45.1541,-121.5189,Keeps Mill,OR,KEEP,NF,541.467.2291,5,NH,VT,NW,www.allstays.com/Campgrounds/or-dufur-campgrounds.htm,22,1,NR,Dufur,ND,NS,,L$
43.88556,-122.25472,Kiahanie,OR,KIAH,NF,541.782.2283,19,NH,VT,DW,forestcamping.com/dow/pacficnw/wil.htm,23,0,NR,Oakridge,ND,NS,,
45.53882,-123.78495,Kilchis Park,OR,KILC,CP,503.842.6694,62,NH,,DW,www.oregoncoasttravel.net/125/oregon_coast/Kilchis-River-Park.htm,24,0,,Tillamook,DP,NS,,
44.9776,-122.0902,Kingfisher,OR,KING,NF,503.630.5721,23,NH,VT,DW,forestcamping.com/dow/pacficnw/mth.htm,25,0,RS,Estacada,ND,NS,,
45.4586,-121.6614,Kinnickinnick,OR,KINN,NF,541.352.6002,15,NH,VT,NW,forestcamping.com/dow/pacficnw/mth.htm,26,0,NR,Parkdale,ND,NS,,
45.4357,-121.479,Knebal Springs,OR,KNEB,NF,541.467.2291,8,NH,VT,NW,www.roadcamping.com/rv/Oregon/Dufur/property_2494/rv_parks_campgrounds.html,27,1,NR,Dufur,ND,NS,,L$
43.87955,-124.14219,Lagoon,OR,LAGO,NF,541.563.3211,41,NH,FT,DW,forestcamping.com/dow/pacficnw/sius.htm,28,0,RS,Florence,ND,NS,PA,
44.33217,-122.04617,Lakes End,OR,LAKE,NF,541.822.3381,14,NH,VT,NW,forestcamping.com/dow/pacficnw/wil.htm,29,0,NR,Blue River,ND,NS,,
45.00956,-116.91297,Lake Fork,OR,LAKF,NF,541.426.4978,10,NH,VT,NW,www.forestcamping.com/dow/pacficnw/wwinfo.htm,30,1,NR,Joseph,ND,NS,,
45.0737,-121.9578,Lake Harriet,OR,LAKH,NF,503.630.6861,16,NH,VT,DW,forestcamping.com/dow/pacficnw/mth.htm,31,0,RS,Estacada,ND,NS,,
43.61987,-117.23731,Lake Owyhee State Park,OR,LAKO,SP,541.339.2331,,WES,,,www.oregonstateparks.org/park_14.php,32,0,RS,Nyssa,DP,SH,,
42.26772,-123.58126,Lake Selmac County Park,OR,LAKS,CP,541.474.5285,,,,,www.co.josephine.or.us/Page.asp?NavID=492,33,1,,Selma,,,,
43.21663,-122.7213,Lake In The Woods,OR,LAKW,NF,541.496.3532,17,NH,VT,DW,forestcamping.com/dow/pacficnw/ump.htm,34,0,NR,Glide,ND,NS,,
45.19019,-118.76508,Lane Creek,OR,LANE,NF,541.427.3231,8,NH,VT,NW,www.ohwy.com/or/w/whitcrcg.htm,35,1,NR,Ukiah,ND,NS,,
43.7644,-121.5265,Lapine State Park,OR,LAPI,SP,541.536.2071,129,WES,,DW,www.oregonstateparks.org/park_41.php,36,0,RS,Bend,DP,SH,PA,
44.26004,-121.78501,Lava Camp Lake,OR,LAVC,NF,541.549.7700,12,NH,VT,NW,forestcamping.com/dow/pacficnw/desc.htm,37,0,NR,Sisters,ND,NS,,
43.61665,-121.82156,Lava Flow,OR,LAVF,BLM,541.433.3200,,,,,www.blm.gov/or/onlineservices/brochures.php,38,0,NR,Crescent,ND,NS,,
43.91338,-121.76587,Lava Lake,OR,LAVL,NF,541.383.4000,44,NH,VT,DW,forestcamping.com/dow/pacficnw/desc.htm,39,0,NR,Bend,ND,NS,,
43.25928,-124.02905,LaVerne County Park,OR,LAVN,CP,541.396.2344,,NH,,DW,www.scod.com/cities/parks/index.html,40,1,,Coquille,DP,SH,,L$
45.1913,-122.2064,Lazy Bend,OR,LAZY,NF,503.630.4156,21,NH,VT,DW,forestcamping.com/dow/pacficnw/mth.htm,41,0,RS,Estacada,ND,NS,,
43.7135,-121.24251,Little Crater,OR,LCRA,NF,541.383.4000,50,NH,VT,DW,forestcamping.com/dow/pacficnw/desc.htm,42,0,NR,La Pine,ND,NS,,
42.59012,-120.83863,Lee Thomas,OR,LEET,NF,541.943.3114,11,NH,VT,DW,forestcamping.com/dow/pacficnw/fre.htm,43,0,NR,,ND,NS,,
45.72681,-120.65064,LePage Park,OR,LEPA,COE,541.506.7819,,E,,DW,corpslakes.usace.army.mil/visitors/projects.cfm?Id=G208480,44,0,RS,Rufus,DP,SH,,
45.15825,-117.03322,Lick Creek,OR,LICK,NF,541.426.4978,10,NH,VT,NW,www.roadcamping.com/rv/Oregon/Enterprise/property_2507/rv_parks_campgrounds.html,45,1,NR,Joseph,ND,NS,,
43.91012,-121.76184,Little Lava Lake,OR,LILL,NF,541.338.7869,16,NH,VT,DW,forestcamping.com/dow/pacficnw/desc.htm,46,0,RS,Bend,ND,NS,,
44.17418,-122.05241,Limberlost,OR,LIMB,NF,541.822.3381,10,NH,VT,NW,www.roadcamping.com/rv/Oregon/Interstate_5/rv_parks_campgrounds.html,47,1,NR,Blue River,ND,NS,,
44.41624,-121.75478,Link Creek,OR,LINK,NF,541.338.7869,36,NH,VT,DW,forestcamping.com/dow/pacficnw/desc.htm,48,0,RS,Sisters,ND,NS,PA,
45.2817,-121.3462,Little Badger,OR,LITB,NF,541.467.2291,6,NH,VT,NW,www.roadcamping.com/rv/Oregon/Dufur/property_2510/rv_parks_campgrounds.html,49,1,NR,Dufur,ND,NS,,L$
44.19336,-118.41341,Little Crane,OR,LITC,NF,541.820.3800,5,NH,VT,NW,,50,0,NR,Prairie City,ND,NS,,
45.1489,-121.7429,Little Crater,OR,LITE,NF,503.622.3191,22,NH,VT,DW,forestcamping.com/dow/pacficnw/mth.htm,51,0,RS,Government Cam,ND,NS,,
43.96306,-121.79692,Little Fawn,OR,LITF,NF,541.383.4000,20,NH,VT,DW,forestcamping.com/dow/pacficnw/desc.htm,52,0,NR,Bend,ND,NS,,
42.153,-124.145,Little Redwood,OR,LITR,NF,541.247.3600,12,NH,VT,DW,forestcamping.com/dow/pacficnw/sis.htm,53,0,NR,Brookings,ND,NS,,
43.79964,-121.87183,Little Cultus,OR,LITT,NF,541.383.4000,10,NH,VT,DW,www.visitusa.com/oregon/lakes/littlecultuslake.htm,54,1,NR,Crescent,ND,NS,,
42.502,-124.2961,Lobster Creek  and Lobster Bar,OR,LOBS,NF,541.247.3600,69,NH,VT,DW,freecampsites.net/lobster-creek-forest-service-campground/,55,1,NR,Gold Beach,ND,NS,,L$
45.16513,-122.15278,Lockaby,OR,LOCB,NF,503.630.6861,30,NH,VT,DW,forestcamping.com/dow/pacficnw/mth.htm,56,0,RS,Estacada,ND,NS,,
42.26286,-120.81492,Lofton Reservoir,OR,LOFT,NF,541.353.2427,30,NH,VT,NW,forestcamping.com/dow/pacficnw/fre.htm,57,0,NR,Bly,ND,NS,,
44.20492,-122.2586,Lookout Boating Site,OR,LOOK,NF,541.822.3381,34,NH,VT,NW,forestcamping.com/dow/pacficnw/wil.htm,58,0,NR,Blue River,ND,NS,,L$
43.59774,-123.84785,Loon Lake - Loon Lake,OR,LOON,BLM,541.599.2254,,NH,,,www.blm.gov/or/resources/recreation/site_info.php?siteid=34,59,0,RS,Reedsport,DP,,PA,
45.3824,-121.8355,Lost Creek,OR,LOSC,NF,503.622.3191,22,NH,VT,NW,forestcamping.com/dow/pacficnw/mth.htm,60,0,NR,Zigzag,ND,NS,,
45.49386,-121.81499,Lost Lake,OR,LOSL,NF,541.352.6002,300,NH,VT,DW,forestcamping.com/dow/pacficnw/mth.htm,61,0,NR,Parkdale,DP,NS,,
44.40385,-122.07401,Lost Prairie,OR,LOSP,NF,541.367.5168,14,NH,VT,DW,forestcamping.com/dow/pacficnw/wil.htm,62,0,NR,Sweet Home,ND,NS,,
44.42989,-121.91278,Lost Lake,OR,LOST,NF,541.822.3381,14,NH,VT,NW,freecampsites.net/lost-lake/,63,1,NR,McKenzie Bridg,ND,NS,,L$
44.5573,-121.6204,Lower Bridge,OR,LOWB,NF,541.549.7700,15,NH,VT,DW,forestcamping.com/dow/pacficnw/desc.htm,64,0,NR,Sisters,ND,NS,,
44.67282,-118.79901,Lower Camp Creek Forest Camp,OR,LOWC,NF,541.575.3000,6,NH,VT,NW,,65,0,NR,Bates,ND,NS,,
43.06948,-121.25704,Lower Buck Creek,OR,LOWE,NF,541.576.2107,5,NH,VT,NW,www.oregonsoutback.com/todo/camping/index.html,66,1,NR,Silver Lake,ND,NS,,
44.8231,-121.7956,Lower Lake - Ollalie Lake,OR,LOWL,NF,503.630.6861,8,NH,VT,NW,,67,0,NR,Estacada,ND,NS,,L$
42.64541,-122.33379,Lower South Fork,OR,LOWS,NF,541.865.2700,7,NH,VT,NW,,68,0,NR,,ND,NS,,
44.50122,-121.64576,Lower Canyon Creek,OR,LOWY,NF,541.549.7700,7,NH,VT,NW,www.roguerivertrips.info/activities/Southern_Oregon_Camping.asp,69,1,NR,,ND,NS,,
42.036,-124.108,Ludlum,OR,LUDL,NF,541.247.3600,15,NH,VT,DW,forestcamping.com/dow/pacficnw/sis.htm,70,0,NR,Chetco,ND,NS,,L$
43.65126,-122.6777,Lund Park Forest Camp,OR,LUND,NF,541.767.5000,9,NH,VT,NW,,71,0,NR,Cottage Grove,ND,NS,,
45.38672,-120.87085,Macks Canyon,OR,MACK,BLM,541.416.6700,,NH,,,www.blm.gov/or/resources/recreation/site_info.php?siteid=330,72,0,NR,Grass Valley,,,,
44.55033,-118.91297,Magone Lake Rec Area,OR,MAGO,NF,541.820.3800,66,NH,VT,DW,forestcamping.com/dow/pacficnw/mal.htm,73,0,RS,Mount Vernon,ND,NS,,
43.96339,-121.78293,Mallard Marsh (Hosmer Lake),OR,MALL,NF,541.383.4000,15,NH,VT,NW,forestcamping.com/dow/pacficnw/desc.htm,74,0,NR,Bend,ND,NS,,
44.6093,-121.94491,Marion Forks,OR,MARI,NF,503.854.3366,15,NH,VT,NW,forestcamping.com/dow/pacficnw/wil.htm,75,0,NR,Detroit,ND,NS,,
42.6231,-120.60412,Marster Spring,OR,MARS,NF,541.943.3114,10,NH,VT,DW,blog.oregonlive.com/terryrichard/2008/07/camping_oregon_top_10_tent_sit.html,76,1,NR,Paisley,ND,NS,,
44.50945,-123.56018,Marys Peak,OR,MARY,NF,541.563.3211,6,NH,VT,NW,www.fs.fed.us/r6/siuslaw/recreation/tripplanning/maryspeak/index.shtml,77,1,NR,Corvallis,ND,NS,,
42.86646,-122.16504,Mazama  - Crater Lake National Park,OR,MAZA,NP,541.594.3000,214,NH,FT,DW,www.nps.gov/crla/planyourvisit/campgrounds.htm,78,1,RS,Rim Village,DP,NS,,
44.93547,-117.22136,Mcbride,OR,MCBR,NF,541.742.7511,10,NH,VT,NW,www.roadcamping.com/rv/Oregon/Halfway/property_2537/rv_parks_campgrounds.html,79,1,NR,Halfway,ND,NS,,
45.11553,-121.48308,Mccubbins Gulch,OR,MCCB,NF,541.467.2291,5,NH,VT,NW,,80,0,NR,Government Camp,ND,NS,,
44.76653,-118.24622,Mccully Forks,OR,MCCU,NF,541.523.4476,7,NH,VT,NW,www.treasurefish.com/oregon%20metal%20detecting.htm,81,1,NR,Baker City,ND,NS,,
43.71688,-121.37729,Mckay Crossing,OR,MCKA,NF,541.383.4000,10,NH,VT,NW,www.roadcamping.com/rv/Oregon/Bend/property_2539/rv_parks_campgrounds.html,82,1,NR,La Pine,ND,NS,,
44.17556,-122.17405,Mckenzie Bridge,OR,MCKE,NF,801.226.3564,25,NH,VT,DW,forestcamping.com/dow/pacficnw/wil.htm,83,0,RS,McKenzie Bridge,ND,NS,PA,
45.3841,-121.8668,McNeil,OR,MCNE,NF,503.622.3191,34,NH,VT,NW,forestcamping.com/dow/pacficnw/mth.htm,84,0,NR,Welches,ND,NS,,
45.69583,-121.33167,Memaloose State Park,OR,MEMA,SP,541.478.3008,,WES,,DW,www.oregonstateparks.org/park_163.php,85,0,RS,The Dalles,DP,SH,,
44.63101,-118.61091,Middle Fork,OR,MIDD,NF,541.575.3000,10,NH,VT,NW,,86,0,NR,Austin,ND,NS,,
42.129,-124.177,Miller Bar,OR,MILB,NF,541.247.3600,50,NH,VT,NW,forestcamping.com/dow/pacficnw/sis.htm,87,0,NR,Brookings,ND,NS,,
42.79586,-122.4665,Mill Creek,OR,MILC,NF,541.865.2700,10,NH,VT,NW,,88,0,NR,Prospect,ND,NS,,
44.67353,-118.06692,Millers Lane,OR,MILL,NF,541.523.4476,8,NH,VT,NW,,89,0,NR,Baker City,ND,NS,,L$
45.29883,-122.37354,McIver State Park,OR,MCIV,SP,503.630.7150,,E,,DW,www.oregonstateparks.org/park_142.php,90,0,RS,Estacada,DP,SH,,
43.380448,-122.9481,Millpond,OR,MILP,BLM,541.440.4930,,NH,,,www.blm.gov/or/resources/recreation/site_info.php?siteid=192,91,0,NR,Sutherlin,ND,NS,,L$
45.7832,-117.71777,Minam State Rec Area - Elgin,OR,MINA,,,12,NH,,,www.traveloregon.com/Explore-Oregon/Eastern-Oregon/Outdoor-Recreation/Water-Sports/Boating/Minam-State-Recreation-Area.aspx,92,0,,Elgin,ND,NS,,
43.58272,-122.7123,Mineral Forest Camp,OR,MINE,NF,541.767.5000,6,NH,VT,NW,www.forestcamping.com/dow/pacficnw/roginfo.htm,93,1,NR,Cottage Grove,ND,NS,,
44.20307,-122.26384,Mona,OR,MONA,NF,541.822.3381,23,NH,VT,DW,forestcamping.com/dow/pacficnw/wil.htm,94,0,NR,Blue River,ND,NS,,
44.62352,-121.47908,Monty,OR,MONT,NF,541.549.7700,33,NH,VT,NW,forestcamping.com/dow/pacficnw/desc.htm,95,0,NR,Culver,ND,NS,,
45.86839,-117.9603,Mottet,OR,MOTT,NF,509.522.6290,6,NH,VT,DW,www.fs.fed.us/r6/uma/fire/fireupdate.shtml,96,1,NR,Milton-Freewater,ND,NS,,
42.076,-122.71343,Mt Ashland,OR,MTAS,NF,530.468.5351,9,NH,VT,NW,www.fs.fed.us/wildflowers/regions/pacificsouthwest/MtAshlandSiskiyouPeak/index.shtml,97,1,NR,Ashland,ND,NS,,
42.28201,-120.20412,Mud Creek,OR,MUDC,NF,541.947.3334,15,NH,VT,NW,forestcamping.com/dow/pacficnw/fre.htm,98,0,NR,Lakeview,ND,NS,,
44.96442,-118.23022,Mud Lake,OR,MUDL,NF,541.894.2393,7,NH,VT,NW,,99,0,RS,Baker City,ND,NS,,
44.21265,-118.639,Murray,OR,MURR,NF,541.820.3800,5,NH,VT,NW,,100,0,NR,Seneca,ND,NS,,
42.786,-124.023,Myrtle Grove,OR,MYRT,NF,541.439.6200,5,NH,VT,NW,,101,0,NR,Powers,ND,NS,,
42.89379,-122.46451,Natural Bridge,OR,NATU,NF,541.865.2700,19,NH,VT,NW,freecampsites.net/natural-bridge/,102,1,NR,Prospect,ND,NS,,L$
45.69849,-123.93604,Nehalem Bay State Park,OR,NEHA,SP,503.368.5154,,E,,DW,www.oregonstateparks.org/park_201.php,103,0,RS,Manzanita Jct,DP,SH,,
42.146,-124.155,Nook Bar,OR,NOOK,NF,541.247.3600,34,NH,VT,NW,forestcamping.com/dow/pacficnw/sis.htm,104,0,NR,Brookings,ND,NS,,
45.1452,-121.7681,North Arm,OR,NORA,NF,503.622.3191,12,NH,VT,NW,forestcamping.com/dow/pacficnw/mth.htm,105,0,NR,,ND,NS,,
43.67362,-121.82337,North Davis Creek,OR,NORD,NF,541.383.4000,14,NH,VT,DW,forestcamping.com/dow/pacficnw/desc.htm,106,0,NR,Crescent,ND,NS,,
42.378,-122.359,North Fork,OR,NORF,NF,541.865.2700,13,NH,VT,DW,forestcamping.com/dow/pacficnw/rog.htm,107,0,NR,Butte Falls,ND,NS,,L$
44.20856,-118.38198,North Fork Malheur,OR,NORM,NF,541.820.3800,5,NH,VT,NW,www.forestcamping.com/dow/pacficnw/malinfo.htm,108,1,NR,,ND,NS,,
44.1018,-123.93824,North Fork Siuslaw,OR,NORS,NF,541.563.3211,8,NH,VT,NW,www.traveloregon.com/Explore-Oregon/Oregon-Coast/Outdoor-Recreation/Fishing/Fishing/North-Fork-Campground.aspx,109,1,NR,Florence,ND,NS,,
43.73132,-121.76372,North Twin Lake,OR,NORT,NF,541.383.4000,20,NH,VT,NW,forestcamping.com/dow/pacficnw/desc.htm,110,0,NR,Crescent,ND,NS,,
43.75833,-122.00278,North Waldo,OR,NORW,NF,541.782.2283,56,NH,VT,NW,forestcamping.com/dow/pacficnw/wil.htm,111,0,NR,Oakridge,DP,NS,,
44.91425,-118.40112,North Fork John Day,OR,NORY,NF,541.427.3231,25,NH,VT,NW,forestcamping.com/dow/pacficnw/uma.htm,112,0,NR,Granite,ND,NS,,
45.3671,-121.5677,Nottingham,OR,NOTT,NF,541.352.6002,23,NH,VT,NW,forestcamping.com/dow/pacficnw/mth.htm,113,0,NR,Hood River,ND,NS,,
45.1135,-121.7699,Oak Fork,OR,OAKF,NF,503.622.3191,53,NH,VT,DW,forestcamping.com/dow/pacficnw/mth.htm,114,0,RS,Government Camp,ND,NS,,
42.518,-124.039,Oak Flat /Gravel Bar,OR,OAKG,NF,541.247.3600,31,NH,VT,NW,forestcamping.com/dow/pacficnw/sis.htm,115,0,NR,Agness,ND,NS,,
44.4993,-120.3867,Ochoco Divide,OR,OCHD,NF,541.416.6500,28,NH,VT,DW,forestcamping.com/dow/pacficnw/och.htm,116,0,NR,Prineville,ND,NS,,N$
44.30556,-120.7,Ochoco Lake,OR,OCHL,SP,541.447.1209,,NH,,,www.rvthereyet.cc/campgrounds.php/11001,117,0,NR,Prineville,ND,NS,,
44.39689,-120.42413,Ochoco Forest Camp,OR,OCHO,NF,541.416.6500,26,NH,VT,NW,forestcamping.com/dow/pacficnw/och.htm,118,0,RS,Prineville,ND,NS,,
43.55103,-121.96265,Odell Creek,OR,ODEL,CP,541.433.3200,22,NH,VT,NW,www.camprrm.com/Oregon%20Campgrounds.htm,119,0,,Crescent Lake,ND,NS,,
42.42888,-122.06006,Odessa,OR,ODES,NF,541.885.3400,6,NH,VT,NW,,120,0,NR,Klamath Falls,ND,NS,,L$
44.25664,-122.03721,Olallie,OR,OLAL,NF,541.822.3381,17,NH,VT,DW,forestcamping.com/dow/pacficnw/wil.htm,121,0,NR,,ND,NS,,
44.8602,-121.7729,Olallie Meadow,OR,OLAM,NF,503.630.6861,7,NH,VT,NW,,122,0,RS,,ND,NS,PA,L$
44.78447,-118.59598,Olive Lake,OR,OLIV,NF,541.427.3231,59,NH,VT,NW,forestcamping.com/dow/pacficnw/uma.htm,123,0,NR,Granite,ND,NS,,
45.15208,-116.87464,Ollokot,OR,OLLO,NF,541.426.4978,13,NH,VT,DW,forestcamping.com/dow/pacficnw/ww.htm,124,0,NR,Joseph,ND,NS,,N$
44.54658,-118.33994,Oregon,OR,OREG,NF,541.446.3351,12,NH,VT,DW,forestcamping.com/dow/pacficnw/ww.htm,125,0,NR,Unity,ND,NS,,
44.97438,-118.72676,Oriental,OR,ORIE,NF,541.427.3231,9,NH,VT,NW,www.fs.fed.us/r6/uma/recreation/campgrounds/nfjd-cg.shtml,126,1,NR,Dale,ND,NS,,
45.76978,-123.95996,Oswald West State Park,OR,OSWA,SP,503.368.5154,,NH,,,www.oregonstateparks.org/park_195.php,127,0,NR,Arch Cape,ND,NS,,
45.49707,-122.2898,Oxbow Regional Park,OR,OXBO,CP,503.797.1850,,NH,,DW,www.oregonmetro.gov/index.cfm/go/by.web/id=150,128,0,,Gresham,ND,SH,,
43.66991,-122.43125,Packard Creek,OR,PACC,NF,541.782.2283,52,NH,VT,DW,forestcamping.com/dow/pacficnw/wil.htm,129,0,NR,Oakridge,ND,NS,,
42.80054,-118.86646,Page Springs,OR,PAGE,BLM,541.573.4400,,NH,,,www.blm.gov/or/resources/recreation/site_info.php?siteid=24,130,0,NR,Frenchglen,ND,NS,,
44.18522,-122.09203,Paradise,OR,PARA,NF,801.226.3564,64,NH,VT,DW,forestcamping.com/dow/pacficnw/wil.htm,131,0,RS,McKenzie Bridge,ND,NS,PA,
44.17766,-118.76642,Parish Cabin,OR,PARI,NF,541.575.3000,21,NH,VT,NW,forestcamping.com/dow/pacficnw/mal.htm,132,0,NR,Seneca,ND,NS,,
42.60076,-122.32338,Parker Meadows,OR,PARK,NF,541.865.2700,10,NH,VT,DW,,133,0,NR,,ND,NS,,
43.7225,-123.211,Pass Creek County Park,OR,PASS,CP,541.957.7001,30,WES,,DW,www.co.douglas.or.us/parks/view_park.asp?index=36&features=&cnt,134,1,,Curtin,DP,SH,,
44.81278,-121.7916,Paul Dennis - Ollalie Lake,OR,PAUD,NF,503.630.6861,17,NH,VT,NW,forestcamping.com/dow/pacficnw/mth.htm,135,0,NR,Detroit,ND,NS,,
43.71186,-121.27382,Paulina Lake,OR,PAUL,NF,541.338.7869,69,NH,VT,DW,forestcamping.com/dow/pacficnw/desc.htm,136,0,RS,La Pine,ND,NS,,
44.685,-121.23611,Pelton Park,OR,PELT,UTIL,541.475.0517,,,,,www.peltonpark.com/,137,1,,Madras,,,,
43.94008,-119.53273,Pendleton Springs Camp,OR,PEND,NF,541.573.4300,10,NH,VT,NW,,138,0,NR,,ND,NS,,
44.8002,-121.7854,Peninsula - Ollalie Lake,OR,PENI,NF,503.630.6861,43,NH,VT,NW,forestcamping.com/dow/pacficnw/mth.htm,139,0,NR,Detroit,ND,NS,,
45.11643,-119.31707,Penland Lake,OR,PENL,NF,541.676.9187,17,NH,VT,NW,forestcamping.com/dow/pacficnw/uma.htm,140,0,NR,Heppner,ND,NS,,N$
44.58432,-121.45113,Perry South,OR,PERR,NF,541.338.7869,63,NH,VT,DW,forestcamping.com/dow/pacficnw/desc.htm,141,0,RS,Culver,ND,NS,PA,
43.79089,-120.94346,Pine Mountain,OR,PINE,NF,541.383.4000,6,NH,VT,NW,www.forestcamping.com/dow/pacficnw/descinfo.htm,142,1,NR,Bend,ND,NS,,
43.70035,-123.056266,Pine Meadows- Cottage Grove Lake,OR,PINM,COE,541.942.8657,,NH,,DW,corpslakes.usace.army.mil/visitors/projects.cfm?Id=G204020,143,0,RS,Cottage Grove,DP,SH,PA,
45.1132,-121.8005,Pine Point,OR,PINP,NF,503.622.3191,59,NH,VT,DW,forestcamping.com/dow/pacficnw/mth.htm,144,0,RS,Government Camp,ND,NS,,
44.4815,-121.63815,Pine Rest,OR,PINR,NF,541.549.7700,8,NH,VT,NW,www.tripleblaze.com/2/3085/Campgrounds/Pine-Rest.html,145,1,NR,Sisters,ND,NS,,
44.55043,-121.62206,Pioneer Ford,OR,PION,NF,541.549.7700,20,NH,VT,DW,forestcamping.com/dow/pacficnw/desc.htm,146,0,NR,Sisters,ND,NS,,
43.96651,-121.8083,Point,OR,POIN,NF,541.383.4000,9,NH,VT,NW,www.traveloregon.com/Explore-Oregon/Southern-Oregon/Outdoor-Recreation/Camp-Oregon/Camping/Aspen-Point-Campground.aspx,147,1,NR,Bend,ND,NS,,
43.31225,-122.1955,Poole Creek,OR,POOL,NF,541.498.2531,80,NH,VT,DW,forestcamping.com/dow/pacficnw/ump.htm,148,0,RS,Diamond Lake,ND,NS,,
42.89282,-124.07739,Powers County Park,OR,POWE,CP,541.439.2791,,E,,DW,www.scod.com/cities/parks/index.html,149,1,,Powers,DP,SH,,L$
43.72431,-121.42484,Prairie,OR,PRAI,NF,541.383.4000,16,NH,VT,DW,forestcamping.com/dow/pacficnw/desc.htm,150,0,NR,La Pine,ND,NS,,
43.58595,-122.00997,Princess Creek,OR,PRIC,NF,541.433.3200,58,NH,VT,NW,forestcamping.com/dow/pacficnw/desc.htm,151,0,NR,Crescent Lake,ND,NS,,
43.74666,-121.60584,Pringle Falls,OR,PRIN,NF,541.383.4000,7,NH,VT,DW,,152,0,NR,Bend,ND,NS,,L$
44.13,-120.72318,Main - Prineville Reservoir State Park,OR,MAIP,SP,541.447.4363,22,WES,FT,DW,www.oregonstateparks.org/park_33.php,153,1,RS,Prineville,,SH,,
43.97635,-122.51713,Puma,OR,PUMA,NF,541.782.2283,11,NH,VT,DW,forestcamping.com/dow/pacficnw/wil.htm,154,0,NR,Lowell,ND,NS,,
43.78509,-121.83659,Quinn River,OR,QUIN,NF,541.383.4000,40,NH,VT,DW,forestcamping.com/dow/pacficnw/desc.htm,155,0,NR,Bend,ND,NS,,
42.498,-124.232,Quosatana,OR,QUOS,NF,541.247.3600,43,NH,VT,DW,forestcamping.com/dow/pacficnw/sis.htm,156,0,NR,Gold Beach,DP,NS,,
45.0246,-122.0667,Raab,OR,RAAB,NF,503.668.1700,27,NH,VT,NW,forestcamping.com/dow/pacficnw/mth.htm,157,0,RS,Estacada,ND,NS,,
45.0788,-122.0425,Rainbow,OR,RAIB,NF,503.630.6861,17,NH,VT,NW,forestcamping.com/dow/pacficnw/mth.htm,158,0,RS,Estacada,ND,NS,,
45.62667,-121.75778,Rainy Lake,OR,RAIN,NF,541.352.6002,5,NH,VT,NW,www.portlandhikersfieldguide.org/wiki/Rainy_Lake,159,1,NR,Parkdale,ND,NS,,L$
42.156,-124.143,Redwood Bar,OR,REDW,NF,541.247.3600,54,NH,VT,NW,forestcamping.com/dow/pacficnw/sis.htm,160,0,NR,Chetco,ND,NS,,L$
43.67119,-121.77083,Reservoir,OR,RESE,NF,541.383.4000,28,NH,VT,NW,forestcamping.com/dow/pacficnw/desc.htm,161,0,NR,,ND,NS,,
44.115641,-123.313238,Richardson Park,OR,RICH,CP,541.935.2005,88,E,,DW,www.lanecounty.org/parks/richard.htm,162,1,,Eugene,DP,SH,,
45.0803,-122.0406,Ripplebrook,OR,RIPP,NF,503.630.6861,13,NH,VT,DW,forestcamping.com/dow/pacficnw/mth.htm,163,0,RS,Estacada,ND,NS,,
42.2968,-123.7451,River Bench,OR,RIVB,NF,541.471.6500,8,NH,VT,NW,,164,0,NR,Selma,ND,NS,,
44.64207,-121.94427,Riverside - Detroit,OR,RIVD,NF,503.854.3366,37,NH,VT,NW,forestcamping.com/dow/pacficnw/wil.htm,165,0,NR,Sisters,ND,NS,,
45.0434,-122.0606,Riverside - Estacada,OR,RIVE,NF,503.630.6861,16,NH,VT,DW,forestcamping.com/dow/pacficnw/mth.htm,166,0,RS,Estacada,ND,NS,,
45.0328,-122.0573,Riverford,OR,RIVF,NF,503.630.6861,10,NH,VT,NW,publiclands.org/explore/site.php?id=3769,167,1,NR,Estacada,ND,NS,,
42.822,-122.493,River Bridge,OR,RIVG,NF,541.865.2700,15,NH,VT,NW,forestcamping.com/dow/pacficnw/rog.htm,168,0,NR,Prospect,ND,NS,,
44.44294,-121.63438,Riverside,OR,RIVS,NF,541.549.7700,16,NH,VT,DW,forestcamping.com/dow/pacficnw/desc.htm,169,0,NR,Sisters,ND,NS,,
45.1578,-122.1134,Roaring River,OR,ROAR,NF,503.630.6861,19,NH,VT,DW,forestcamping.com/dow/pacficnw/mth.htm,170,0,RS,Estacada,ND,NS,,
45.34058,-121.57129,Robinhood,OR,ROBI,,541.352.6002,,,,,www.roadcamping.com/rv/Oregon/Parkdale/property_2738/rv_parks_campgrounds.html,171,0,,,,,,
45.23979,-123.6048,Rocky Bend,OR,ROCB,NF,503.392.3161,6,NH,VT,NW,www.fs.fed.us/r6/siuslaw/recreation/tripplanning/tillnewp/camp/rockybend.shtml,172,1,NR,Beaver,ND,NS,,
42.708,-124.059,Rock Creek,OR,ROCC,NF,541.439.6200,7,NH,VT,NW,www.fs.fed.us/r6/siuslaw/recreation/tripplanning/newpflor/camp/rockcreek.shtml,173,1,NR,Agness,ND,NS,,
43.767,-121.83151,Rock Creek - La Pine,OR,ROCL,NF,541.383.4000,33,NH,VT,DW,forestcamping.com/dow/pacficnw/desc.htm,174,0,NR,Crescent,ND,NS,,
45.22176,-121.38215,Rock Creek Reservoir,OR,ROCR,NF,541.544.0955,33,NH,VT,NW,forestcamping.com/dow/pacficnw/mth.htm,175,0,RS,Dufur,ND,NS,,
43.99818,-118.84079,Rock Springs,OR,ROCS,NF,541.573.4300,14,NH,VT,NW,forestcamping.com/dow/pacficnw/mal.htm,176,0,NR,Burns,ND,NS,,
44.18589,-124.11008,Rock Creek - Yachats,OR,ROCY,NF,541.547.3679,16,NH,VT,DW,forestcamping.com/dow/pacficnw/sius.htm,177,0,RS,Yachats,ND,NS,,
44.87611,-121.96861,Round Lake,OR,ROUL,NF,503.630.6861,6,NH,VT,NW,freecampsites.net/round-lake-campground/,178,1,NR,,ND,NS,,N$
44.44235,-121.7828,Round Lake,OR,ROUN,NF,541.549.7700,6,NH,VT,NW,,179,0,NR,Sisters,ND,NS,,N$
45.44995,-121.58032,Routson,OR,ROUT,CP,541.387.6888,,,,,www.hoodriver.org/HRCCC_CategoryTemplate.asp?CategoryINDX=424,180,0,,Mt.Hood Parkdale,,,,
43.70631,-122.7422,Rujada,OR,RUJA,NF,541.767.5000,20,NH,VT,DW,forestcamping.com/dow/pacficnw/ump.htm,181,0,NR,Cottage Grove,ND,NS,,
43.49639,-122.32833,Sacandaga,OR,SACA,NF,541.782.2283,21,NH,VT,DW,forestcamping.com/dow/pacficnw/wil.htm,182,0,NR,Oakridge,ND,NS,,
45.39986,-116.72328,Saddle Creek,OR,SADD,NF,541.426.4978,7,NH,VT,NW,www.eugenecarsey.com/camp/hellscanyon/hatpoint.htm,183,1,NR,Enterprise,ND,NS,,N$
43.76278,-122.37306,Salmon Creek Falls,OR,SALM,NF,541.782.2283,17,NH,VT,DW,forestcamping.com/dow/pacficnw/wil.htm,184,0,NR,Oakridge,ND,NS,,
42.442,-123.686,Sam Brown,OR,SAMB,NF,541.471.6500,35,NH,VT,NW,forestcamping.com/dow/pacficnw/sis.htm,185,0,NR,Merlin,ND,SH,,
45.28665,-123.95775,Sand Beach,OR,SANB,NF,503.392.3161,101,NH,VT,DW,forestcamping.com/dow/pacficnw/sius.htm,186,0,RS,Pacific City,DP,NS,,
42.59465,-120.87865,Sandhill Crossing,OR,SAND,NF,541.943.3114,8,NH,VT,DW,www.eugenecarsey.com/camp/fremont/sandhill.htm,187,1,NR,Paisley,ND,NS,,
43.60139,-122.45139,Sand Prairie,OR,SANP,NF,541.782.2283,33,NH,VT,NW,forestcamping.com/dow/pacficnw/wil.htm,188,0,NR,Oakridge,ND,NS,,L$
44.71197,-122.11507,Santiam Flats,OR,SANT,NF,503.854.3366,32,NH,VT,DW,forestcamping.com/dow/pacficnw/wil.htm,189,0,NR,Detroit,ND,NS,,L$
43.7854,-122.95557,Schwarz,OR,SCHW,COE,541.942.1418,,NH,,DW,corpslakes.usace.army.mil/visitors/projects.cfm?Id=G204910,190,0,RS,Cottage Grove,DP,SH,PA,
44.21232,-121.88801,Scott Lake,OR,SCOL,NF,541.822.3381,10,NH,VT,NW,www.ohwy.com/or/s/scottlke.htm,191,1,NR,Sisters,ND,NS,,
42.88588,-121.9233,Scott Creek,OR,SCOT,NF,541.365.7001,6,NH,VT,NW,www.ohwy.com/or/s/scottckcg.htm,192,1,NR,Chiloquin,ND,NS,,
44.41139,-121.74867,Scout Lake,OR,SCOU,NF,541.338.7869,25,NH,VT,DW,forestcamping.com/dow/pacficnw/desc.htm,193,0,RS,Sisters,ND,NS,PA,
42.422,-123.688,Secret Creek,OR,SECC,NF,541.471.6500,9,NH,VT,NW,,194,0,NR,Galice,ND,NS,,
43.51479,-122.44116,Secret,OR,SECR,NF,541.782.2283,6,NH,VT,NW,,195,0,NR,Oakridge,ND,NS,,L$
43.69306,-122.04167,Shadow Bay,OR,SHAB,NF,801.226.3564,106,NH,VT,DW,forestcamping.com/dow/pacficnw/wil.htm,196,0,RS,Oakridge,DP,NS,PA,
44.84493,-122.30044,Shady Cove,OR,SHAC,NF,503.854.3366,15,NH,VT,NW,forestcamping.com/dow/pacficnw/wil.htm,197,0,NR,Mill City,ND,NS,,
45.25842,-117.38253,Shady,OR,SHAD,NF,541.426.4978,13,NH,VT,NW,forestcamping.com/dow/pacficnw/ww.htm,198,0,NR,Enterprise,ND,NS,,
43.66528,-122.80737,Sharps Creek,OR,SHAR,BLM,541.683.6600,,NH,,,www.blm.gov/or/resources/recreation/files/brochures/Sharps_Creek.pdf,199,0,NR,Dorena,,,,
43.72964,-121.78425,Sheep Bridge,OR,SHEE,NF,541.338.7869,23,NH,VT,DW,forestcamping.com/dow/pacficnw/desc.htm,200,0,RS,Crescent,ND,NS,,
45.0847,-121.9206,Shellrock Creek,OR,SHEL,NF,503.630.6861,8,NH,VT,NW,www.roadcamping.com/rv/Oregon/Estacada/property_2799/rv_parks_campgrounds.html,201,1,NR,Estacada,ND,NS,,
45.3946,-121.569,Sherwood,OR,SHER,NF,541.352.6002,26,NH,VT,NW,forestcamping.com/dow/pacficnw/mth.htm,202,0,NR,Hood River,ND,NS,,
44.86646,-122.65112,Silver Falls State Park,OR,SILF,SP,503.873.8681,,WES,,DW,www.oregonstateparks.org/park_211.php,203,0,RS,Salem,DP,SH,,
43.00669,-121.12998,Silver Creek Marsh,OR,SILV,NF,541.576.2107,24,NH,VT,DW,freecampsites.net/silver-creek-marsh/,204,1,NR,Silver Lake,ND,NS,,N$
42.80478,-124.30768,Sixes River,OR,SIXE,BLM,,,,,,www.blm.gov/or/resources/recreation/site_info.php?siteid=44,205,0,NR,Sixes,ND,NS,,
42.297,-123.73,Sixmile Camp,OR,SIXM,NF,541.471.6500,10,NH,VT,NW,www.visitusa.com/oregon/lakes/illinoisriver.htm,206,1,NR,Selma,ND,NS,,
43.0917,-122.6202,Skillet Creek Forest Camp,OR,SKIL,NF,541.825.3100,5,NH,VT,NW,,207,0,NR,,ND,NS,,
43.86139,-122.045,Skookum Creek,OR,SKOC,NF,541.782.2283,8,NH,VT,DW,www.ohwy.com/or/s/skoocree.htm,208,1,NR,Westfir,ND,NS,,
44.39678,-121.06458,Skull Hollow,OR,SKUL,NF,541.475.9272,29,NH,VT,NW,forestcamping.com/dow/pacficnw/cr.htm,209,0,NR,Terrebonne,ND,NS,,
45.553,-117.563,Skyline,OR,SKYL,NF,509.522.6290,6,NH,VT,NW,,210,0,NR,Wallowa,ND,NS,,
44.07681,-122.22405,Slide Creek,OR,SLIC,NF,541.822.3381,24,NH,VT,NW,forestcamping.com/dow/pacficnw/wil.htm,211,0,NR,Blue River,ND,NS,,
44.47426,-121.63707,Smiling River,OR,SMIL,NF,541.338.7869,47,NH,VT,DW,forestcamping.com/dow/pacficnw/desc.htm,212,0,RS,Camp Sherman,ND,NS,,
43.78833,-123.8175,Smith River Falls,OR,SMIT,BLM,541.756.0100,8,NH,,,www.publiclands.org/explore/site.php?id=3440,213,1,NR,Reedsport,,,,
44.02481,-121.72832,Soda Creek,OR,SODA,NF,541.383.4000,10,NH,VT,NW,www.roadcamping.com/rv/Oregon/Bend/property_2813/rv_parks_campgrounds.html,214,1,NR,Bend,ND,NS,,
42.189,-124.14,South Fork Bluff,OR,SOUB,NF,541.247.3600,8,NH,VT,NW,,215,0,NR,,ND,NS,,
42.187,-124.132,South Fork Camps,OR,SOUC,NF,541.247.3600,10,NH,VT,NW,,216,0,NR,Brookings,ND,NS,,
44.70493,-122.17602,Southshore,OR,SOUE,NF,503.854.3366,66,NH,VT,NW,forestcamping.com/dow/pacficnw/wil.htm,217,0,NR,Sisters,ND,NS,,
44.40361,-118.30528,South Fork,OR,SOUF,NF,541.446.3351,14,NH,VT,NW,forestcamping.com/dow/pacficnw/ww.htm,218,0,NR,Unity,ND,NS,,
43.96034,-121.78765,South (Hosmer Lake),OR,SOUH,NF,541.383.4000,23,NH,VT,NW,forestcamping.com/dow/pacficnw/desc.htm,219,0,NR,Bend,ND,NS,,L$
45.20191,-123.7204,South Lake,OR,SOUL,NF,503.392.3161,9,NH,VT,NW,www.traveloregon.com/Explore-Oregon/Oregon-Coast/Outdoor-Recreation/Fishing/Fishing/South-Lake-Campground.aspx,220,1,NR,Beaver,ND,NS,,
42.63901,-118.76324,South Steens,OR,SOUN,BLM,541.416.6700,,NH,,,www.blm.gov/or/resources/recreation/site_info.php?siteid=340,221,0,NR,Princeton,ND,NS,,L$
44.604,-124.06372,South Beach State Park,OR,SOUP,SP,541.867.4715,,WES,,DW,www.oregonstateparks.org/park_209.php,222,0,RS,New;port,DP,SH,PA,
44.41795,-121.74147,South Shore,OR,SOUR,NF,541.338.7869,38,NH,VT,DW,forestcamping.com/dow/pacficnw/desc.htm,223,0,RS,Sisters,ND,NS,PA,
44.67589,-118.08094,Southwest Shore,OR,SOUS,NF,541.523.4476,16,NH,VT,NW,forestcamping.com/dow/pacficnw/ww.htm,224,0,NR,Baker City,ND,NS,,
43.71529,-121.77114,South Twin Lake,OR,SOUT,NF,541.383.4000,21,NH,VT,DW,forestcamping.com/dow/pacficnw/desc.htm,225,0,NR,Bend,ND,NS,,
43.05585,-122.6884,South Umpqua Falls,OR,SOUU,NF,541.825.3100,20,NH,VT,NW,forestcamping.com/dow/pacficnw/ump.htm,226,0,NR,Tiller,ND,NS,,
43.61444,-121.82333,South Lava Flow,OR,SOUW,NF,541.433.3200,16,NH,VT,NW,forestcamping.com/dow/pacficnw/desc.htm,227,0,NR,Crescent,ND,NS,,
42.347,-123.702,Spalding Pond,OR,SPAL,NF,541.471.6500,8,NH,VT,NW,www.fs.fed.us/r6/fishing/forests/gofishing/rogrivsis_lakes.html,228,1,NR,Galice,ND,NS,,
43.56993,-124.20263,Spinreel,OR,SPIN,NF,541.271.6000,50,NH,VT,NW,forestcamping.com/dow/pacficnw/sius.htm,229,0,RS,North Bend,ND,NS,PA,
45.20256,-118.39353,Spool Cart,OR,SPOO,NF,541.963.7186,12,NH,VT,NW,forestcamping.com/dow/pacficnw/ww.htm,230,0,NR,La Grande,ND,NS,,
43.4606,-122.02025,Spring,OR,SPRI,NF,541.338.7869,81,NH,VT,DW,forestcamping.com/dow/pacficnw/desc.htm,231,0,RS,Crescent,ND,NS,,
42.03541,-123.02233,Squaw Lakes,OR,SQUA,NF,541.899.3800,37,NH,VT,DW,forestcamping.com/dow/pacficnw/rog.htm,232,0,RS,Applegate,ND,NS,,L$
42.731,-124.005,Sru Lake,OR,SRUL,NF,541.439.6200,9,NH,VT,NW,,233,0,NR,Powers,ND,NS,,
44.2616,-119.01808,Starr,OR,STAR,NF,541.575.3000,13,NH,VT,NW,forestcamping.com/dow/pacficnw/mal.htm,234,0,NR,Canyon City,ND,NS,,
35.57579,-95.18097,Brewers Bend - Webbers Falls Lake,OK,BREW,COE,918.489.5541,,E,,DW,corpslakes.usace.army.mil/visitors/projects.cfm?Id=M519590,235,0,NR,Webbers Falls,DP,SH,,L$
35.287598,-95.390625,Brooken Cove - Eufaula Lake,OK,BROO,COE,918.799.5843,,E,,DW,corpslakes.usace.army.mil/visitors/projects.cfm?Id=M505650,236,1,RS,Eufaula,DP,SH,,
35.542493,-94.816995,Brushy Lake State Park,OK,BRUS,SP,918.775.6507,,E,,DW,www.travelok.com/listings/view.profile/id.879,237,1,,Sallisaw,,SH,,
34.432861,-96.993896,Buckhorn - Chickasaw National Rec Area,OK,BUCK,NRA,580.622.3165,134,WES,FT,DW,www.nps.gov/chic/planyourvisit/campgrounds-n-camping.htm,238,1,RS,Sulphur,DP,SH,PA,
36.417725,-96.21875,Bull Creek Peninsula - Skiatook Lake,OK,BULL,COE,,,NH,,,corpslakes.usace.army.mil/visitors/projects.cfm?Id=M575378,239,0,NR,Skiatook,ND,NS,,
33.89702,-96.80959,Buncombe Creek - Lake Texoma,OK,BUNC,COE,580.564.2901,,E,,DW,www.swt.usace.army.mil/recreat/laketexoma/RecAreaMaps/Buncombe%20Creek.pdf,240,0,RS,Madill,DP,SH,,
33.85135,-96.57403,East Burns Run - Lake Texoma,OK,EBUR,COE,580.965.4660,,WES,,,corpslakes.usace.army.mil/visitors/projects.cfm?Id=M574945#Activity,241,1,RS,Colbert,DP,SH,,
33.86411,-96.5912,West Burns Run - Lake Texoma,OK,WBUR,COE,580.965.4922,,WES,,DW,corpslakes.usace.army.mil/visitors/projects.cfm?Id=M574945#Activity,242,1,RS,Colbert,DP,SH,,
36.08981,-98.60803,Canadian - Canton Lake,OK,CANA,COE,580.886.3454,,E,,DW,corpslakes.usace.army.mil/visitors/projects.cfm?Id=M502570,244,1,RS,Canton,DP,SH,,
36.918213,-96.116211,Caney Bend,OK,CANB,COE,,5,NH,,,freecampsites.net/caney-bend-public-use-area/,245,1,,Copan,ND,NS,,N$
33.9265,-96.703167,Caney Creek - Lake Texoma,OK,CANC,COE,580.564.2632,,E,,DW,corpslakes.usace.army.mil/visitors/projects.cfm?Id=M574945#Activity,246,1,RS,Kingston,DP,SH,,
35.79833,-94.89306,Carters Landing - Tenkiller Ferry Lake,OK,CART,COE,918.487.5252,,E,,,corpslakes.usace.army.mil/visitors/projects.cfm?Id=M518050,247,0,NR,Tahlequah,ND,NS,,
36.482589,-95.013333,Disney / Little Blue State Park,OK,DISN,SP,918.435.8066,,,,,www.travelok.com/listings/view.profile/id.2251,248,1,,,,,,
34.7801,-94.6944,Cedar Lake,OK,CEDA,NF,918.653.2991,24,WES,,DW,freecampsites.net/cedar-lake/,249,1,RS,Heavener,DP,SH,PA,L$
35.763412,-94.908072,Cherokee Landing State Park,OK,CHEL,SP,918.457.5716,,E,,DW,www.travelok.com/listings/view.profile/id.1290,250,1,,Park Hill,DP,SH,,
36.482589,-95.013333,Cherokee State Park,OK,CHER,SP,918.435.8066,,HK,,,www.travelok.com/listings/view.profile/id.1302,251,1,,Disney,,SH,,
35.68258,-94.96036,Chicken Creek - Tenkiller Ferry Lake,OK,CHIC,COE,918.487.5252,,E,,DW,corpslakes.usace.army.mil/visitors/projects.cfm?Id=M518050,252,1,RS,Vian,DP,SH,,
34.2495,-98.03508,Chisolm Trail Ridge - Waurika Lake,OK,CHIS,COE,580.963.2111,,E,FT,DW,corpslakes.usace.army.mil/visitors/projects.cfm?Id=M519570,253,1,RS,Waurika,DP,SH,,
34.540076,-95.306059,Clayton Lake State Park,OK,CLAY,SP,918.569.7981,,E,,DW,www.travelok.com/listings/view.profile/id.1601,254,1,,Clayton,,SH,,
35.70694,-94.96045,Cookson Bend - Tenkiller Ferry Lake,OK,COOK,COE,918.487.5252,,E,,DW,corpslakes.usace.army.mil/visitors/projects.cfm?Id=M518050,255,1,RS,Cookson,DP,SH,,
36.78215,-96.92378,Coon Creek Cove - Kaw Lake,OK,COON,COE,580.762.5611,,E,,DW,corpslakes.usace.army.mil/visitors/projects.cfm?Id=M508790,256,0,RS,Ponca City,DP,SH,,L$
35.32138,-94.82737,Cowlington Point - Kerr Reservoir,OK,COWL,COE,918.775.4475,,E,,DW,www.swt.usace.army.mil/recreat/OPSField.CFM?tblOPSField__LakeName=Robert%20S.%20Kerr%20Lock%20and%20Dam%20and%20Reservoir,257,0,RS,Sallisaw,DP,SH,,L$
36.231445,-96.364258,Cowskin Bay South - Keystone Lake,OK,COWS,COE,918.865.2621,,NH,,,corpslakes.usace.army.mil/visitors/projects.cfm?Id=M508990,258,0,NR,Cleveland,ND,NS,,
35.403306,-98.696955,Crowder Lake University State Park,OK,CROW,SP,580.343.2443,,E,,DW,164.58.59.82/crowderlake/facilities.asp,259,0,,Weatherford,DP,SH,,
35.86533,-95.23006,Dam Site - Fort Gibson Lake,OK,DAMT,COE,918.683.6618,,E,FT,DW,corpslakes.usace.army.mil/visitors/projects.cfm?Id=M506000,260,1,RS,Fort Gibson,,,,
35.300293,-95.371826,Dam Site South - Eufaula Lake,OK,DAMS,COE,918.799.5843,,E,,DW,corpslakes.usace.army.mil/visitors/projects.cfm?Id=M505650,261,1,RS,Eufaula,ND,NS,,L$
35.75141,-94.90267,Elk Creek Landing - Tenkiller Ferry Lake,OK,ELKC,COE,918.487.5252,,E,,DW,corpslakes.usace.army.mil/visitors/projects.cfm?Id=M518050,262,0,RS,Cookson,DP,NS,,
36.04555,-95.32732,Flat Rock Creek - Fort Gibson Lake,OK,FLAT,COE,918.476.6766,,E,FT,DW,corpslakes.usace.army.mil/visitors/projects.cfm?Id=M506000,263,1,RS,Wagoner,DP,SH,,
35.17662,-98.47554,Fort Cobb - Area 1,OK,FOR1,SP,405.643.2249,,HK,,,www.travelok.com/listings/view.profile/id.2822,264,1,,Fort Cobb,,SH,,
35.17529,-98.47271,Fort Cobb - Area 2,OK,FOR2,SP,405.643.2249,,HK,,,www.travelok.com/listings/view.profile/id.2822,265,1,,Fort Cobb,,SH,,
35.1739,-98.4403,Fort Cobb - Area 3,OK,FOR3,SP,405.643.2249,,HK,,,www.travelok.com/listings/view.profile/id.2822,266,1,,Fort Cobb,,SH,,
35.17974,-98.44627,Fort Cobb - Area 4,OK,FOR4,SP,405.643.2249,,E,,DW,www.travelok.com/listings/view.profile/id.2822,267,1,,Fort Cobb,,SH,,
35.16468,-98.47467,Fort Cobb - Area 5,OK,FOR5,SP,405.643.2249,,HK,,,www.travelok.com/listings/view.profile/id.2822,268,1,,Fort Cobb,,SH,,
35.90921,-95.26528,Fort Gibson - Fort Gibson Lake,OK,FORG,COE,918.682.4314,,,,,corpslakes.usace.army.mil/visitors/projects.cfm?Id=M506000,269,0,NR,Western Hills Guest Ranch,,,,
35.530083,-99.191,Foss State Park,OK,FOSS,SP,580.592.4433,,E,,DW,www.travelok.com/listings/view.profile/id.2848,270,1,,Foss,,SH,,
35.500732,-95.664795,Gentry Creek Landing - Eufaula Lake,OK,GENT,COE,918.799.5843,,E,,DW,corpslakes.usace.army.mil/visitors/projects.cfm?Id=M505650,271,1,RS,Checotah,DP,SH,,L$
35.624163,-95.170822,Greenleaf State Park,OK,GREE,SP,918.487.5196,,,,DW,www.travelok.com/listings/view.profile/id.3236,272,1,,Braggs,DP,SH,,
34.745641,-98.968636,Great Plains State Park,OK,GREP,SP,580.569.2032,,E,,DW,www.travelok.com/listings/view.profile/id.3201,273,1,,Mountain Park,,SH,,
36.75146,-98.15838,Great Salt Plains State Park,OK,GRES,SP,580.626.4731,,,,DW,www.travelok.com/listings/view.profile/id.3204,274,1,,Jet,,SH,,
34.44694,-97.04962,Guy Sandy - Chickasaw National Rec Area,OK,GUYS,NRA,580.622.7234,,NH,VT,,www.nps.gov/chic/planyourvisit/campgrounds-n-camping.htm,275,1,NR,Sulphur,,NS,,
36.651123,-101.15869,Hardesty Park - Optima Lake,OK,HARD,COE,,,,,,corpslakes.usace.army.mil/visitors/projects.cfm?Id=M513370,276,0,NR,Hardesty,,,,
36.432,-95.68105,Hawthorn Bluff - Oologah Lake,OK,HAWT,COE,918.443.2319,,E,,DW,www.swt.usace.army.mil/recreat/results.CFM?tblRecreation__LakeName=Oologah%20Lake,277,1,RS,Oologah,DP,SH,PA,
35.944816,-96.307483,Heyburn Park - Heyburn Lake,OK,HEYB,COE,918.247.6601,,E,,DW,www.swt.usace.army.mil/RECREAT/OPSField.CFM?tblOPSField__LakeName=Heyburn%20Lake,278,0,RS,Kellyville,DP,SH,,
33.970947,-96.995361,Hickory Creek - Lake Texoma,OK,HICK,COE,,,NH,,,www.swt.usace.army.mil/LIBRARY/Webhuntingmaps/texoma.pdf,279,0,NR,Marietta,,,,
35.60259,-96.07695,Hickory Point - Dripping Springs State Park,OK,HICP,SP,918.756.5971,,,,,www.travelok.com/listings/view.profile/id.2368,280,1,,Okmulgee,,,,
35.242676,-95.491455,Highway 9 Landing - Eufaula Lake,OK,HIGH,COE,918.799.5843,,E,,DW,corpslakes.usace.army.mil/visitors/projects.cfm?Id=M505650,281,1,RS,Eufaula,DP,SH,,
34.17685,-94.7406,Hochatown State Park,OK,HOCH,SP,580.494.6452,,,,,www.touroklahoma.com/,282,1,,Broken Bow,,,,
35.435791,-95.629395,Holiday Cove,OK,HOLI,COE,,,NH,,,corpslakes.usace.army.mil/visitors/projects2.cfm?Id=M505650&StartRow=11,283,0,NR,Checotah,ND,NS,,
36.574724,-94.783285,Honey Creek State Park,OK,HONE,SP,918.786.9447,,,,,www.travelok.com/listings/view.profile/id.3617,284,1,,Grove,,,,
34.02015,-95.40759,Hugo Lake - Kiamichi State Park,OK,HUGL,SP,580.326.0303,,,,,www.travelok.com/listings/view.profile/id.3696,285,1,,Hugo,,,,
34.00105,-96.568833,Johnson Creek - Lake Texoma,OK,JOHN,COE,580.924.7316,,E,,DW,corpslakes.usace.army.mil/visitors/projects.cfm?Id=M574945#Activity,286,1,RS,Kingston,DP,SH,,L$
36.138499,-96.26453,Keystone State Park,OK,KEYS,SP,918.865.4991,,,,,www.travelok.com/listings/view.profile/id.4163,287,1,,Sand Springs,,,,
34.2609,-98.0868,Kiowa Park - Waurika Lake,OK,KIOW,COE,580.963.2111,,E,,DW,corpslakes.usace.army.mil/visitors/projects.cfm?Id=M519570,288,1,RS,Waurika,DP,SH,,
33.91135,-96.62768,Lake Texoma Dennison,OK,LAKD,COE,903.465.4990,,,,,www.swt.usace.army.mil/recreat/OPSField.CFM?tblOPSField__LakeName=Lake%20Texoma,289,0,NR,Kingston,,,,
35.232333,-97.24755,Lake Thunderbird State Park - North,OK,LAKN,SP,405.360.3572,,,,,www.travelok.com/listings/view.profile/id.4386,292,1,,Norman,,,,
35.20199,-97.23912,Lake Thunderbird State Park - South,OK,LAKS,SP,405.360.3572,,,,,www.travelok.com/listings/view.profile/id.4386,293,1,,Norman,,,,
33.99689,-96.63773,Lake Texoma State Park,OK,LAKT,SP,580.564.2566,,E,,DW,www.travelok.com/listings/view.profile/id.4383,294,1,,Kingston,DP,SH,,
34.17058,-95.12349,Little River - Pine Creek Lake,OK,LITR,COE,580.933.4239,,WES,,DW,corpslakes.usace.army.mil/visitors/projects.cfm?Id=M514030,296,1,RS,New Ringold,DP,SH,,L$
36.53038,-98.88041,Little Sahara State Park,OK,LITS,SP,580.824.1472,,,,,www.travelok.com/listings/view.profile/id.4581,297,1,,Waynoka,,,,
36.12915,-98.581787,Longdale Area - Canton Lake,OK,LONG,COE,580.274.3454,,NH,,,corpslakes.usace.army.mil/visitors/projects.cfm?Id=M502570,298,1,RS,Longdale,ND,NS,,L$
34.17948,-95.1046,Lost Rapids - Pine Creek Lake,OK,LOST,COE,580.933.4239,,E,,,corpslakes.usace.army.mil/visitors/projects.cfm?Id=M514030,299,1,RS,New Riingold,DP,NS,,L$
36.70479,-96.93431,McFadden Cove - Kaw Lake,OK,MCFA,COE,580.762.5611,,E,,,www.swt.usace.army.mil/recreat/opsfield.cfm?tblopsfield__lakename=kaw%20lake,300,0,NR,Ponca City,ND,NS,,L$
34.30545,-95.87112,McGee Creek State Park,OK,MCGE,SP,580.889.5822,,,,,www.travelok.com/listings/view.profile/id.4972,301,1,,Atoka,,,,
35.258057,-95.701904,Mill Creek Bay - Eufaula Lake,OK,MILL,COE,,12,NH,FT,DW,www.ohwy.com/ok/m/micrbapa.htm,302,0,,Eufaula,ND,NS,,
34.23075,-98.04684,Moneka Park - Waurika Lake,OK,MONE,COE,580.963.2111,,NH,,,corpslakes.usace.army.mil/visitors/projects.cfm?Id=M519570,303,1,NR,Waurika,ND,NS,,
36.175565,-94.670128,Natural Falls State Park,OK,NATU,SP,918.422.5802,,,,,www.travelok.com/listings/view.profile/id.5293,304,1,,Colcord,,,,
36.15197,-96.39087,New Mannford Ramp - Keystone Lake,OK,NEWM,COE,918.865.2096,,E,,DW,corpslakes.usace.army.mil/visitors/projects.cfm?Id=M508990,305,0,NR,Mannford,DP,SH,,
36.05889,-95.53556,Newt Graham Lock and Dam - Arkansas River,OK,NEWT,COE,918.489.5541,,,,,corpslakes.usace.army.mil/visitors/projects.cfm?Id=M500787,306,0,NR,Broken Arrow,,,,
35.61861,-96.06939,Okmulgee - Dripping Springs  State Park,OK,OKMU,SP,918.756.5971,,E,,DW,www.travelok.com/listings/view.profile/id.5520,307,1,,Okmulgee,DP,SH,,
36.713483,-96.887866,Osage Cove - Kaw Lake,OK,OSAC,COE,580.762.5611,,E,,DW,www.swt.usace.army.mil/recreat/opsfield.cfm?tblopsfield__lakename=kaw%20lake,308,0,RS,Ponca City,DP,SH,,
36.738463,-96.185158,Osage Hills State Park,OK,OSAH,SP,918.336.4141,,E,,DW,www.travelok.com/listings/view.profile/id.5595,309,1,,Pawhuska,,SH,,
35.74694,-94.93651,Petit Bay - Tenkiller Ferry Lake,OK,PETI,COE,918.487.5252,,WES,FT,DW,corpslakes.usace.army.mil/visitors/projects.cfm?Id=M518050,310,1,RS,Keys,DP,SH,,
34.11299,-95.09128,Pine Creek Cove - Pine Creek Lake,OK,PINC,COE,580.933.4239,,WES,,DW,corpslakes.usace.army.mil/visitors/projects.cfm?Id=M514030,311,1,RS,Valliant,DP,SH,,L$
34.21392,-95.12444,Pine Creek Lake Valliant,OK,PINE,COE,405.933.4239,,,,,corpslakes.usace.army.mil/visitors/projects.cfm?Id=M514030,312,0,NR,,,,,
33.924167,-96.553,Platter Flats - Lake Texoma,OK,PLAT,COE,580.434.5864,,E,,DW,corpslakes.usace.army.mil/visitors/projects.cfm?Id=M574945#Activity,313,1,RS,Platter,DP,SH,,L$
35.358154,-95.390625,Porum Landing - Eufaula Lake,OK,PORU,COE,918.799.5843,,E,,DW,corpslakes.usace.army.mil/visitors/projects.cfm?Id=M505650,314,1,RS,Porum,DP,SH,,L$
34.6707,-95.3231,Potato Hills Central,OK,POTA,COE,918.569.4131,,E,FT,DW,www.swt.usace.army.mil/recreat/notices.cfm,315,1,RS,Clayton,DP,SH,,
34.967957,-99.330048,Quartz Mountain State Park,OK,QUAR,SP,580.563.2424,,,,,www.quartzmountain.org/,316,1,,Lone Wolf,,,,
33.994354,-95.255815,Raymond Gary State Park,OK,RAYM,SP,580.873.2307,,E,,DW,www.travelok.com/listings/view.profile/id.6230,317,1,,Fort Towson,,SH,,
35.45635,-98.359266,Red Rock Canyon State Park,OK,REDR,SP,405.542.6344,,,,DW,www.travelok.com/listings/view.profile/id.6275,318,1,,Hinton,,SH,,
36.418701,-95.661621,Redbud Bay - Oologah Lake,OK,REDB,COE,918.443.2250,,NH,,,www.swt.usace.army.mil/recreat/results.CFM?tblRecreation__LakeName=Oologah%20Lake,319,1,NR,Oologah,ND,NS,,
35.61014,-96.07411,Red Oak - Dripping Springs  State Park,OK,REDO,SP,918.756.5971,,,,,www.travelok.com/listings/view.profile/id.2368,320,1,,Okmulgee,,,,
34.98523,-95.35695,Robbers Cave State Park,OK,ROBB,SP,918.465.2565,,,,,www.travelok.com/listings/view.profile/id.6415,321,1,,Wilburton,,,,
34.496338,-96.98877,Rock Creek,OK,ROCC,NRA,,,,,,www.davisok.org/nature-adventures.asp,322,0,NR,Sulphur,,,,
44.56839,-73.42335,Ausable Point  - DEC,NY,AUSA,SPR,518.561.7080,,NH,,,www.dec.ny.gov/outdoor/7825.html,323,1,RS,Peru,DP,SH,PA,
40.76243,-73.44867,Battle Row,NY,BATT,CP,516.572.8690,,E,,DW,www.nassaucountyny.gov/agencies/Parks/Wheretogo/campgrounds/index.html,324,0,,Old Bethpage,DP,SH,,
42.118404,-75.06897,Bear Spring Mountain - DEC,NY,BEAR,SPR,607.865.6989,,NH,,DW,www.dec.ny.gov/outdoor/7825.html,325,1,RS,Walton,DP,SH,PA,
41.97887,-74.8394,Beaverkill - DEC,NY,BEVK,SPR,845.439.4281,,NH,FT,DW,www.dec.ny.gov/outdoor/7825.html,326,1,RS,Roscoe,DP,SH,PA,
41.229166,-74.0703,Beaver Pond - Harriman State Park,NY,BEVP,SP,845.947.2792,,NH,,DW,nysparks.state.ny.us/parks/116/details.aspx,327,0,RS,Stony Point,DP,SH,,
40.824915,-73.222259,Blydenburgh Park,NY,BLYD,CP,631.854.3712,,NH,,,www.co.suffolk.ny.us/departments/parks/Blydenburgh%20County%20Park.aspx,328,0,,Smithtown,,,,
42.521661,-75.679525,Bowman Lake State Park,NY,BOWM,SP,607.334.2718,,NH,,DW,nysparks.state.ny.us/parks/,329,0,RS,Oxford,DP,SH,PA,
43.80398,-74.70068,Brown Tract Pond - DEC,NY,BROW,SPR,315.354.4412,,NH,,,www.dec.ny.gov/outdoor/7825.html,330,1,RS,Inlet,DP,,PA,
44.50518,-74.117804,Buck Pond - DEC,NY,BUCK,SPR,518.891.3449,,NH,,DW,www.dec.ny.gov/outdoor/7825.html,331,1,RS,Gabriels,DP,SH,PA,
44.162596,-76.264612,Burnham Point State Park,NY,BURN,SP,315.654.2324,,E,,DW,nysparks.state.ny.us/parks/,332,0,RS,Cape Vincent,DP,SH,PA,
42.416359,-76.521131,Buttermilk Falls State Park,NY,BUTT,SP,607.273.5761,,NH,,DW,nysparks.state.ny.us/parks/,333,0,RS,Ithaca,,SH,PA,
42.037283,-78.845983,Cain Hollow (Quaker Area) - Allegany State Park,NY,CAIN,SP,716.354.2182,,E,,,en.wikipedia.org/wiki/Allegany_State_Park,334,0,RS,Salamanca,DP,SH,,
43.1253,-74.468279,Caroga Lake - DEC,NY,CARO,SPR,518.835.4241,,NH,,DW,www.dec.ny.gov/outdoor/7825.html,335,1,RS,Johnstown,DP,SH,PA,
42.896033,-76.753316,Cayuga Lake State Park,NY,CAYU,SP,315.568.5163,,E,,DW,nysparks.state.ny.us/parks/,336,0,RS,Seneca Falls,DP,SH,PA,
44.20396,-76.19726,Cedar Point State Park,NY,CEDP,SP,315.654.2522,,WES,,DW,www.reserveamerica.com/camping/Cedar_Point_State_Park/r/campgroundDetails.do?contractCode=NY&parkId=347,337,0,RS,Clayton,DP,SH,PA,
42.215483,-75.817766,Chenango Valley State Park,NY,CHEN,SP,607.648.5251,,E,,DW,nysparks.state.ny.us/parks/41/details.aspx,338,0,RS,Chenango Forks,DP,SH,PA,
42.62211,-73.40966,Cherry Plain State Park,NY,CHER,SP,518.733.5400,30,NH,,,en.wikipedia.org/wiki/Cherry_Plain_State_Park,339,0,RS,Cherry Plain,,,PA,
42.980161,-75.846683,Chittenango Falls State Park,NY,CHIT,SP,315.655.9620,,,,,nysparks.state.ny.us/parks/,340,0,NR,,,,,
41.46129,-73.83053,Clarence Fahnestock State Park,NY,CLAR,SP,845.225.7207,,NH,,DW,nysparks.state.ny.us/parks/133/details.aspx,341,0,RS,Carmel,,SH,PA,
44.89173,-75.14022,Coles Creek State Park,NY,COLE,SP,315.388.5636,,E,,,www.reserveamerica.com/camping/Coles_Creek_State_Park/r/campgroundDetails.do?contractCode=NY&parkId=361,342,0,RS,Waddington,,,PA,
42.12094,-73.51978,Copake Falls - Taconic State Park,NY,COPA,SP,518.329.3993,,NH,,DW,nysparks.state.ny.us/parks/83/details.aspx,343,0,RS,Copake Falls,DP,SH,PA,
44.196777,-74.821045,Cranberry Lake  - DEC,NY,CRAN,SPR,315.848.2315,,NH,,DW,www.dec.ny.gov/outdoor/7825.html,344,1,RS,Cranberry Lake,DP,SH,PA,
44.024598,-73.425053,Crown Point - DEC,NY,CROW,SPR,518.597.3603,,NH,,DW,www.dec.ny.gov/outdoor/7825.html,345,1,RS,Crown Point,DP,SH,PA,
44.724566,-73.426433,Cumberland Bay State Park,NY,CUMB,SP,518.563.5240,,E,,DW,www.reserveamerica.com/camping/Cumberland_Bay/r/campgroundDetails.do?contractCode=NY&parkId=439,346,0,RS,Plattsburg,DP,SH,PA,
42.902166,-78.4331,Darien Lakes State Park,NY,DARI,SP,716.547.9242,,E,,DW,www.reserveamerica.com/camping/Darien_Lakes_State_Park/r/campgroundDetails.do?contractCode=NY&parkId=386,347,0,RS,Darien Center,DP,SH,PA,
43.29182,-75.417,Delta Lake State Park,NY,DELT,SP,315.337.4670,,NH,,DW,www.reserveamerica.com/camping/Delta_Lake_State_Park/r/campgroundDetails.do?contractCode=NY&parkId=56,348,0,RS,Rome,DP,SH,PA,
42.151237,-74.208277,Devils Tombstone - DEC,NY,DEVI,SPR,845.688.7160,,NH,,,www.dec.ny.gov/outdoor/7825.html,349,1,RS,Lanesville,,,PA,
44.330322,-75.996826,DeWolf Point State Park,NY,DEWO,SP,315.482.2012,,NH,,,nysparks.state.ny.us/parks/22/details.aspx,350,0,RS,Fineview,,,PA,
43.748047,-73.792725,Eagle Point - DEC,NY,EAGL,SPR,518.494.2220,,NH,,DW,www.dec.ny.gov/outdoor/7825.html,351,1,RS,Pottersville,DP,SH,PA,
44.630127,-75.477295,Eel Weir State Park,NY,EELW,SP,315.393.1138,,NH,,DW,nysparks.state.ny.us/parks/,352,0,RS,Ogdensburg,,SH,PA,
43.76333,-74.71231,Eighth Lake - DEC,NY,EIGH,SPR,315.354.4120,,NH,,DW,www.dec.ny.gov/outdoor/7825.html,353,1,RS,Inlet,DP,SH,PA,
42.60218,-79.11538,Evangola State Park,NY,EVAN,SP,716.549.1802,,E,,DW,evangolastatepark.com/,354,0,RS,Irving,DP,SH,PA,
43.342529,-76.689453,Fair Haven Beach State Park,NY,FAIR,SP,315.947.5205,,E,,,www.reserveamerica.com/jsp/commonpage.jsp?goto=/usa/ny/fair/newindex.html,355,0,RS,Fair Haven,DP,,PA,
42.700166,-76.420383,Fillmore Glen State Park,NY,FILL,SP,315.497.0130,,E,,DW,nysparks.state.ny.us/parks/,356,0,RS,Moravia,DP,SH,PA,
44.30758,-74.36497,Fish Creek Pond - DEC,NY,FISH,SPR,518.891.4560,,NH,,DW,www.dec.ny.gov/outdoor/7825.html,357,1,RS,Tupper Lake,DP,SH,PA,
43.9053,-74.525243,Forked Lake - DEC,NY,FORK,SPR,518.624.6646,,NH,,,www.dec.ny.gov/outdoor/7825.html,358,1,RS,Long Lake,,,PA,
43.27417,-78.995117,Four Mile Creek State Park,NY,FOUR,SP,716.745.3802,,E,,,www.reserveamerica.com/jsp/commonpage.jsp?goto=/usa/ny/four/newindex.html,359,0,RS,Youngstown,,,PA,
42.5727,-75.128333,Gilbert Lake State Park,NY,GILB,SP,607.432.2114,,E,,DW,www.reserveamerica.com/camping/Gilbert_Lake_State_Park/r/campgroundDetails.do?contractCode=NY&parkId=64,360,0,RS,Laurens,DP,SH,PA,
42.793701,-74.868896,Glimmerglass State Park,NY,GLIM,SP,607.547.8662,,NH,,DW,nysparks.state.ny.us/parks/,361,0,RS,Cooperstown,DP,SH,PA,
43.816706,-74.591997,Golden Beach - DEC,NY,GOLB,SPR,315.354.4230,,NH,,DW,www.dec.ny.gov/outdoor/7825.html,362,1,RS,Piseco,DP,SH,PA,
43.373535,-78.483398,Golden Hill State Park,NY,GOLH,SP,716.795.3885,,E,,DW,nysparks.state.ny.us/parks/,363,0,RS,Barker,DP,SH,PA,
44.27895,-75.995383,Grass Point State Park,NY,GRAS,SP,315.686.4472,,E,,DW,nysparks.state.ny.us/parks/,364,0,RS,Alexandria Bay,DP,SH,PA,
43.05585,-76.004816,Green Lakes State Park,NY,GREE,SP,315.637.6111,,E,,DW,nysparks.state.ny.us/,365,0,RS,Fayetteville,DP,SH,PA,
43.360352,-77.945557,Hamlin Beach State Park,NY,HAML,SP,716.964.2462,,E,,DW,www.reserveamerica.com/campgroundDetails.do?subTabIndex=0&contractCode=ny&parkCode=haml,366,0,RS,Hamlin,DP,SH,PA,
43.4547,-73.69397,Hearthstone Point - DEC,NY,HEAR,SPR,518.668.5193,,NH,,DW,www.dec.ny.gov/outdoor/7825.html,367,1,RS,Lake George Vi,DP,SH,PA,
40.710205,-73.158203,Heckscher State Park,NY,HECK,SP,631.581.2100,,NH,,DW,nysparks.state.ny.us/parks/,368,0,RS,East Islip,DP,SH,,
44.496094,-74.921875,Higley Flow State Park,NY,HIGL,SP,315.262.2880,,E,,DW,www.reserveamerica.com/jsp/commonpage.jsp?goto=/usa/ny/higl/newindex.html,369,0,RS,Colton,DP,SH,PA,
41.00796,-72.0159,Hither Hills State Park,NY,HITH,SP,631.668.2554,,NH,,DW,www.lirv.com/camps/hither.htm,370,0,RS,Montauk,DP,SH,,
42.594727,-75.372559,Hunts Pond,NY,HUNT,SP,607.674.4017,,NH,,,www.reserveamerica.com/camping/Hunts_Pond_State_Park/r/campgroundDetails.do?contractCode=NY&parkId=749,371,0,NR,New Berlin,ND,NS,,
40.92712,-72.62882,Indian Island Park,NY,INDI,CP,631.852.3232,,NH,,,www.dec.ny.gov/outdoor/24471.html,372,0,,Riverhead,DP,,,
44.55937,-75.67718,Jacques Cartier State Park,NY,JACQ,SP,315.375.6371,,E,,DW,nysparks.state.ny.us/parks/,373,0,RS,Morristown,DP,SH,PA,
42.342041,-77.722168,Kanakadea Park - Almond Lake,NY,KANA,CP,607.664.2460,,E,,,www.steubencony.org/publicworks/kanakadeapark.html,374,1,,Hornell,DP,,,
44.323975,-75.929932,Keewaydin State Park,NY,KEEW,SP,315.482.3331,,NH,,DW,nysparks.state.ny.us/parks/,375,0,RS,Alexandria Bay,,SH,PA,
42.02689,-74.220532,Kenneth L. Wilson - DEC,NY,KENN,SPR,845.679.7020,76,NH,,,www.dec.ny.gov/outdoor/7825.html,376,1,RS,Mt.Tremper,,SH,PA,
42.583252,-77.130371,Keuka Lake State Park,NY,KEUK,SP,315.536.3666,,E,,DW,nysparks.state.ny.us/parks/,377,0,RS,Bluff Point,DP,SH,PA,
44.377197,-75.855469,Kring Point State Park,NY,KRIN,SP,315.482.2444,,E,,DW,www.wildernet.com/pages/area.cfm?areaID=NYSPKP&CU_ID=1,378,0,RS,Redwood,DP,SH,PA,
43.366455,-78.243896,Lakeside Beach State Park,NY,LAKB,SP,585.682.4888,,E,FT,DW,www.wildernet.com/pages/area.cfm?areaID=NYSPLB&CU_ID=1,379,0,RS,Waterport,DP,SH,PA,
43.83783,-74.3889,Lake Durant - DEC,NY,LAKD,SPR,518.352.7797,,NH,,,www.dec.ny.gov/outdoor/7825.html,380,1,RS,Indian Lake,DP,SH,PA,
43.98798,-74.46336,Lake Eaton - DEC,NY,LAKE,SPR,518.624.2641,,NH,,DW,www.dec.ny.gov/outdoor/7825.html,381,1,RS,Long Lake,DP,SH,PA,
43.413827,-73.711554,Lake George Battleground - DEC,NY,LAKG,SPR,518.668.3348,,NH,,DW,www.dec.ny.gov/outdoor/7825.html,382,1,RS,Lake George Vi,DP,SH,PA,
43.97866,-74.13038,Lake Harris - DEC,NY,LAKH,SPR,518.582.2503,,NH,,DW,www.dec.ny.gov/outdoor/7825.html,383,1,RS,Newcomb,DP,SH,PA,
42.420966,-79.428583,Lake Erie State Park,NY,LAKR,SP,716.792.9214,,E,,DW,www.reserveamerica.com/jsp/commonpage.jsp?goto=/usa/ny/erie/newindex.html,384,0,RS,Brocton,DP,SH,PA,
42.09375,-73.708008,Lake Taghkanic State Park,NY,LAKT,SP,518.851.3631,,NH,,,nysparks.state.ny.us/parks/,385,0,RS,Ancram,DP,,PA,
42.58429,-78.04542,Letchworth State Park,NY,LETC,SP,585.493.3600,,E,,DW,nysparks.state.ny.us/,386,0,RS,Castile,DP,SH,PA,
43.65125,-74.39401,Lewey Lake - DEC,NY,LEWE,SPR,518.648.5266,,NH,,DW,www.dec.ny.gov/outdoor/24471.html,387,0,RS,Indian Lake,DP,SH,PA,
43.717927,-74.795852,Limekiln Lake - DEC,NY,LIME,SPR,315.357.4401,,NH,,DW,www.dec.ny.gov/outdoor/7825.html,388,1,RS,Inlet,DP,SH,PA,
44.13884,-73.57912,Lincoln Pond - DEC,NY,LINC,SPR,518.942.5292,,NH,,DW,www.dec.ny.gov/outdoor/7825.html,389,1,RS,New Russia,DP,SH,PA,
42.03554,-74.73497,Little Pond - DEC,NY,LITP,SPR,845.439.5480,,NH,,DW,www.dec.ny.gov/outdoor/7825.html,390,1,RS,Margaretville,DP,SH,PA,
43.417274,-74.551391,Little Sand Point - DEC,NY,LITS,SPR,518.548.7585,,NH,,,www.dec.ny.gov/outdoor/7825.html,391,1,RS,Piseco,DP,,PA,
44.02601,-76.22104,Long Point State Park,NY,LONG,SP,315.649.5258,,E,,DW,nysparks.state.ny.us/parks/,392,0,RS,Three Mile Bay,DP,SH,PA,
43.361035,-73.826076,Luzerne - DEC,NY,LUZE,SPR,518.696.2031,,NH,,DW,www.dec.ny.gov/outdoor/7825.html,393,1,RS,Lake Luzerne,DP,SH,PA,
44.6163,-73.61565,Macomb Reservation State Park,NY,MACO,SP,518.643.9952,,E,,DW,nysparks.state.ny.us/parks/,394,0,RS,Schuyler Falls,DP,SH,PA,
41.84035,-73.931683,Margaret Norrie State Park,NY,MARG,SP,845.889.4646,,NH,,,nysparks.state.ny.us/parks/171/details.aspx,395,0,RS,Staatsburg,,,PA,
42.547363,-74.411133,Max V Shaul State Park,NY,MAXV,SP,518.827.4711,,NH,,DW,nysparks.state.ny.us/parks/94/details.aspx,396,0,RS,Fultonham,,SH,PA,
44.57802,-74.2865,Meacham Lake - DEC,NY,MEAC,SPR,518.483.5116,,NH,,DW,www.dec.ny.gov/outdoor/7825.html,397,1,RS,Malone,DP,SH,PA,
44.298627,-74.076603,Meadowbrook - DEC,NY,MEAD,SPR,518.891.4351,,NH,,DW,www.dec.ny.gov/outdoor/7825.html,398,1,RS,,DP,SH,PA,
43.49345,-74.398512,Moffitt Beach - DEC,NY,MOFF,SPR,518.548.7102,,NH,,DW,www.dec.ny.gov/outdoor/7825.html,399,1,RS,Speculator,DP,SH,PA,
41.957355,-74.691223,Mongaup Pond - DEC,NY,MONG,SPR,845.439.4233,,NH,,DW,www.dec.ny.gov/outdoor/7825.html,400,1,RS,DeBruce,DP,SH,PA,
43.227066,-73.70675,Moreau Lake State Park,NY,MORE,SP,518.793.0511,,NH,,DW,nysparks.state.ny.us/parks/,401,0,RS,Gansevoort,DP,SH,PA,
42.043816,-76.734266,Newtown Battlefield State Park,NY,NEWT,SP,607.732.6067,,E,,DW,chemungvalley.org/camping.asp,402,0,RS,Elmira,DP,SH,,
43.68824,-74.981651,Nicks Lake - DEC,NY,NICK,SPR,315.369.3314,,NH,,,www.dec.ny.gov/outdoor/7825.html,403,1,RS,Webb,DP,SH,PA,
42.20349,-74.03695,North/South Lake  - DEC,NY,NORS,SPR,518.589.5058,,NH,,,www.dec.ny.gov/outdoor/7825.html,404,1,RS,Haines Falls,DP,SH,PA,
43.18688,-74.1802,Northampton Beach - DEC,NY,NORT,SPR,518.863.6000,,NH,,DW,www.dec.ny.gov/outdoor/7825.html,405,1,RS,Northville,DP,SH,PA,
42.18085,-75.41792,Oquaga Creek State Park,NY,OQUA,SP,607.467.4160,,NH,,DW,binghamton.citysearch.com/profile/7700010/bainbridge_ny/oquaga_creek_state_park.html,406,0,RS,Bainbridge,DP,SH,PA,
43.88495,-73.67908,Paradox Lake - DEC,NY,PARA,SPR,518.532.7451,,NH,,DW,www.dec.ny.gov/outdoor/7825.html,407,1,RS,Paradox,DP,SH,PA,
43.40341,-75.34395,Pixley Falls State Park,NY,PIXL,SP,315.942.4713,,NH,,,nysparks.state.ny.us/parks/,408,0,NR,Boonville,,,,
43.399057,-74.582055,Point Comfort - DEC,NY,POIN,SPR,518.548.7586,,NH,,,www.dec.ny.gov/outdoor/7825.html,409,1,RS,Piseco,,,PA,
44.40391,-73.502511,Poke-O-Moonshine - DEC,NY,POKE,SPR,518.834.9045,,NH,,DW,www.dec.ny.gov/outdoor/7825.html,410,1,NR,Schroon Lake,,SH,,
43.428136,-74.540449,Poplar Point - DEC,NY,POPL,SPR,518.548.8031,,NH,,,www.dec.ny.gov/outdoor/7825.html,411,1,RS,Piseco,,,PA,
43.8377,-73.57068,Putnam Pond - DEC,NY,PUTN,SPR,518.585.7280,,NH,,DW,www.dec.ny.gov/outdoor/7825.html,412,1,RS,Ticonderoga,DP,SH,PA,
42.0971,-78.747,Red House - Allegany State Park,NY,REDH,SP,716.354.9121,,E,,,www.reserveamerica.com/camping/Allegany_State_Park/r/campgroundDetails.do?contractCode=NY&parkId=31,413,0,RS,Salamanca,DP,SH,,
42.398216,-76.546083,Robert H. Treman State Park,NY,ROBH,SP,607.273.3440,,E,,,hikingohioparks.com/robert-h-treman-state-park.html,414,0,RS,Ithaca,DP,SH,PA,
44.98551,-74.86997,Robert Moses State Park,NY,ROBM,SP,315.769.8663,,E,,DW,nysparks.state.ny.us/parks/,415,0,RS,Massena,DP,SH,PA,
43.788594,-73.488214,Rogers Rock - DEC,NY,ROGE,SPR,518.585.6746,,NH,,DW,www.dec.ny.gov/outdoor/7825.html,416,1,RS,Ticonderoga,DP,SH,PA,
44.307,-74.40705,Rollins Pond - DEC,NY,ROLL,SPR,518.891.3239,,NH,,DW,www.dec.ny.gov/outdoor/7825.html,417,1,RS,Tupper Lake,DP,SH,PA,
41.6851,-116.34502,Wilson Reservoir,NV,WILS,BLM,,15,NH,VT,DW,www.blm.gov/nv/st/en/prog/recreation/camping.html,418,0,NR,,DP,NS,,L$
41.72376,-115.89338,Wild Horse Crossing,NV,WILC,NF,,27,NH,VT,NW,forestcamping.com/dow/intermtn/humb.htm,419,0,NR,Mountain City,ND,NS,,
41.69131,-115.8201,Wild Horse Rec Area 3,NV,WIL3,BLM,,18,,VT,NW,www.blm.gov/wo/st/en/res/Education_in_BLM/Learning_Landscapes/For_Travelers/go/adventures/north_wildhorse_recreation.html,420,0,NR,,,,,
41.6799,-115.80809,Wild Horse Rec Area 2,NV,WIL2,RES,775.758.6493,23,,VT,NW,parks.nv.gov/wh.htm,421,0,,,,,,
41.66897,-115.80066,Wild Horse Rec Area 1,NV,WIL1,SRA,775.758.6493,33,NH,FT,DW,parks.nv.gov/wh.htm,422,0,NR,Mountain City,DP,SH,,
38.943823,-115.341125,White River,NV,WHIT,NF,,8,NH,VT,NW,www.publiclands.org/explore/site.php?plicstate=NV&id=382,423,1,NR,Ely,ND,NS,,
39.01073,-114.30253,Wheeler Peak - Great Basin National Park,NV,WHEE,NP,775.234.7331,37,NH,VT,DW,www.nps.gov/grba/,424,1,NR,Baker,ND,NS,,
40.93005,-117.6746,Water Canyon,NV,WATE,BLM,,,NH,VT,NW,freecampsites.net/water-canyon-blm/,425,1,NR,Winnemucca,ND,NS,,N$
39.241483,-119.76325,Washoe Lake State Rec Area,NV,WASH,SP,775.687.4319,49,NH,FT,DW,parks.nv.gov/wl.htm,426,0,NR,Carson City,DP,SH,,
39.21161,-114.9679,Ward Mountain,NV,WARM,NF,775.289.3031,29,NH,VT,DW,forestcamping.com/dow/intermtn/humb.htm,427,0,RS,Ely,ND,NS,,
39.03787,-114.84948,Ward Charcoal Ovens State Park,NV,WARC,SP,775.684.2770,14,NH,VT,DW,parks.nv.gov/ww.htm,428,0,NR,Ely,ND,NS,,
41.8549,-119.00475,Virgin Valley Camp,NV,VIRG,USFW,,15,,VT,NW,www.nps.gov/history/history/online_books/deva/illustrations.htm,429,0,,,,,,
36.430233,-114.518216,Valley of Fire State Park,NV,VALL,SP,702.397.2088,73,WE,FT,DW,www.parks.nv.gov/vf.htm,430,1,NR,Overton,DP,SH,,
39.01297,-114.25361,Upper Lehman  - Great Basin National Park,NV,UPPE,NP,775.234.7331,24,NH,VT,DW,www.nps.gov/grba/,431,1,NR,Baker,,,,
39.18385,-116.79085,Toquima Caves,NV,TOQU,NF,,7,,VT,NW,www.publiclands.org/explore/site.php?id=420,432,1,NR,Austin,,,,
38.69634,-119.52155,Topaz Lake,NV,TOPA,CP,775.266.3343,70,WE,FTVT,DW,www.topazlake.com/topazlakepark.htm,433,1,,,DP,SH,,
39.40101,-114.63169,Timber Creek,NV,TIMB,NF,775.289.3031,8,NH,VT,DW,www.campingguidenevada.com/cgnes/standardlisting.asp?campcode=NVWHITIM,434,1,RS,Ely,ND,NS,,
40.64989,-115.40469,Thomas Canyon,NV,THOM,NF,775.752.3357,49,NH,VT,DW,forestcamping.com/dow/intermtn/humb.htm,435,0,RS,Spring Creek,ND,NS,,
36.0319,-114.32622,Temple Bar,NV,TEMP,NRA,520.767.3211,153,,FT,DW,www.nps.gov/lake/planyourvisit/campgrounds.htm,436,0,NR,Temple Bar Marina,,,,
38.74689,-118.76341,Tamarack,NV,TAMA,BLM,,,NH,,NW,freecampsites.net/tamarack-beach/,437,1,NR,Hawthorne,ND,NS,,N$
41.4815,-115.149,Tabor Creek,NV,TABO,BLM,,10,NH,VT,NW,www.blm.gov/nv/st/en/prog/recreation/camping.html,438,1,NR,Wells,,,,L$
38.02364,-114.20284,Spring Valley State Park,NV,SPRI,SP,775.962.5102,36,NH,FT,DW,parks.nv.gov/sv.htm,439,0,NR,Pioche,DP,SH,,
38.69196,-118.76942,Sportsmans Beach,NV,SPOR,BLM,,40,NH,VT,DW,freecampsites.net/sportsmans-beach-recreation-site/,440,1,NR,Hawthorne,ND,NS,,L$
40.663933,-115.741066,South Fork Reservoir,NV,SOUT,SP,775.744.4346,25,NH,FT,DW,parks.nv.gov/sf.htm,441,0,NR,Elko,DP,SH,,
40.81043,-117.72151,Sonoma Creek Dispersed,NV,SONO,BLM,,,NH,NT,NW,www.blm.gov/nv/st/en/prog/recreation/camping.html,442,0,NR,Winnemucca,ND,NS,,N$
39.3771,-119.18855,Silver Springs Beach - Lahotan State Park,NV,SILV,SP,775.867.3500,29,,VT,DW,parks.nv.gov/lah.htm,443,0,NR,Fallon,DP,SH,,
38.92797,-114.25335,Shoshone - Great Basin National Park,NV,SHOS,NP,,,NH,,,www.nps.gov/grba/,444,1,NR,Baker,ND,NS,,
41.8854,-115.4297,Sawmill,NV,SAWM,NF,,6,,,,www.forestcamping.com/dow/pacficsw/inyoinfo.htm,445,1,NR,Jarbidge,,,,
40.468833,-118.31095,Rye Patch State Park,NV,RYEP,SP,775.538.7321,45,NH,FT,DW,www.parks.nv.gov/rp.htm,446,1,NR,Lovelock,DP,SH,,
40.25416,-115.47566,Ruby Lake,NV,RUBY,NF,,35,,VT,DW,www.nevadadventures.com/recsites/elkoco/rubylakerefuge.html,447,0,NR,Ruby Valley,,,,
36.1296,-115.3842,Red Rock Canyon,NV,REDR,BLM,775.861.6590,71,NH,VT,DW,www.blm.gov/nv/st/en/fo/lvfo/blm_programs/blm_special_areas/red_rock_nca/recreation/red_rock_campground.html,448,1,NR,Las Vegas,ND,NS,,
41.8356,-115.4261,Pine Creek,NV,PIN2,NF,,5,NH,,,www.fs.fed.us/r4/htnf/recreation/camp_picnic/tonopah_camp/pine_creek_campground.shtml,449,1,NR,Jarbridge,ND,NS,,
38.79547,-116.85033,Pine Creek,NV,PIN1,NF,,32,,VT,NW,forestcamping.com/dow/intermtn/toiy.htm,450,0,NR,,,,,
38.61634,-117.30257,Peavine,NV,PEAV,NF,,15,NH,VT,NW,forestcamping.com/dow/intermtn/toiy.htm,451,0,NR,,ND,NS,,
41.69415,-118.74624,Onion Valley Reservoir,NV,ONIO,BLM,,,,,,www.blm.gov/nv/st/en/prog/recreation/camping.html,452,0,NR,Denio Junction,ND,NS,,
38.98101,-119.95303,Nevada Beach,NV,NEVA,NF,775.588.5562,54,NH,FTVT,DW,forestcamping.com/dow/pacficsw/ltb.htm,453,0,RS,Stateline,ND,NS,,
39.31304,-119.89249,Mount Rose,NV,MOUN,NF,530.694.9551,24,NH,FT,DW,forestcamping.com/dow/intermtn/toiy.htm,454,0,RS,Reno,ND,NS,,
40.35626,-116.99529,Mill Creek,NV,MILL,BLM,,10,NH,VT,NW,www.blm.gov/nv/st/en/prog/recreation/camping.html,455,0,NR,Battle Mountai,ND,NS,,N$
38.00832,-114.20691,Meadow Valley,NV,MEAD,BLM,,6,NH,VT,NW,www.blm.gov/nv/st/en/prog/recreation/camping.html,456,0,NR,Pioche,ND,NS,,N$
36.30913,-115.68329,McWilliams,NV,MCWI,NF,702.515.5400,49,NH,FTVT,DW,forestcamping.com/dow/intermtn/toiy.htm,457,0,RS,Indian Springs,DP,NS,,
41.68554,-117.56079,Lye Creek,NV,LYEC,NF,,14,NH,VT,DW,forestcamping.com/dow/intermtn/humb.htm,458,0,NR,Winnemucca,ND,NS,,
39.01743,-114.23773,Lower Lehman  - Great Basin National Park,NV,LOWE,NP,775.234.7331,11,NH,VT,DW,www.nps.gov/grba/,459,1,NR,Baker,ND,NS,,
36.12811,-114.8715,Las Vegas Bay  - Lake Mead National Rec Area,NV,LASV,NRA,928.767.3211,150,NH,FT,DW,www.nps.gov/lame/planyourvisit/upload/campgrLVB.pdf,460,0,NR,Henderson,DP,NS,,
36.19485,-114.47321,Lake Mead National Rec Area,NV,LAKE,NRA,702.293.8907,,,,,www.nps.gov/lake/planyourvisit/campgrounds.htm,461,0,NR,Overton,,,,
39.46416,-119.06135,Lahontan Reservoir State Rec Area 2,NV,LAH2,SRA,775.867.3500,40,,FT,DW,parks.nv.gov/lah.htm,462,0,NR,Fallon,,,,
39.3778,-119.2013,Lahontan Reservoir State Rec Area 1,NV,LAH1,SRA,775.867.3500,,,VT,DW,parks.nv.gov/lah.htm,463,0,NR,Fallon,DP,,,
36.26278,-115.60664,Kyle Canyon,NV,KYLE,NF,702.515.5400,32,NH,VT,DW,forestcamping.com/dow/intermtn/toiy.htm,464,0,RS,Las Vegas,ND,NS,,
35.66,-114.84928,Knob Hill Dispersed,NV,KNOB,BLM,,,NH,VT,NW,www.blm.gov/nv/st/en/prog/recreation/camping.html,465,0,NR,,ND,NS,,N$
39.22522,-117.14064,Kingston,NV,KING,NF,,18,NH,VT,NW,forestcamping.com/dow/intermtn/toiy.htm,466,0,NR,Austin,ND,NS,,
35.22165,-114.56354,Katherine Landing - Lake Mead National Rec Area,AZ,KATH,NRA,928.754.3245,173,WES,FT,DW,www.nps.gov/lame/planyourvisit/upload/campgrKA.pdf,467,0,RS,Bullhead City,,,,
39.56663,-114.58749,Kalamazoo,NV,KALA,NF,,9,NH,VT,NW,www.allstays.com/Campgrounds/nv-mcgill-campgrounds.htm,468,1,NR,Ely,ND,NS,,
41.86323,-115.42923,Jarbidge,NV,JARB,NF,,5,,VT,NW,www.publiclands.org/explore/site.php?id=7122&SID=1264280573.92309,469,1,NR,Jarbidge,,,,
41.51361,-116.06306,Jack Creek,NV,JACK,NF,,6,NH,VT,NW,www.ohwy.com/or/j/jackcree.htm,470,1,NR,Mountain City,ND,NS,,
39.33456,-115.38785,Illipah Reservoir,NV,ILLI,BLM,775.289.1800,17,NH,VT,NW,freecampsites.net/illipah-reservoir/,471,1,NR,Ely,ND,NS,,N$
36.31136,-115.6069,Hilltop,NV,HILL,NF,702.515.5400,40,NH,FT,DW,forestcamping.com/dow/intermtn/toiy.htm,472,0,RS,Las Vegas,ND,SH,,
39.44952,-116.75085,Hickison Petroglyth,NV,HICK,BLM,,16,,VT,NW,www.blm.gov/ca/st/en/info/newsbytes/virtual_visitor/nevada_virtual_visitor.html,473,0,NR,Austin,,,,
40.04871,-114.7955,Goshute Canyon,NV,GOSH,BLM,,,NH,VT,NW,www.blm.gov/nv/st/en/prog/recreation/camping.html,474,0,NR,Ely,ND,NS,,N$
39.29243,-119.27153,Fort Churchill State Park,NV,FORT,SP,775.577.2345,20,NH,VT,DW,parks.nv.gov/fc.htm,475,0,NR,Silver Springs,DP,NS,,
36.26252,-115.6178,Fletcher View,NV,FLET,NF,702.515.5400,12,E,VT,DW,forestcamping.com/dow/intermtn/toiy.htm,476,0,RS,Las Vegas,ND,SH,,
37.9127,-114.26914,Echo Canyon Reservoir State Park,NV,ECHC,SP,775.962.5103,33,NH,FT,DW,parks.nv.gov/ec.htm,477,0,NR,Pioche,DP,,,
36.30878,-114.43685,Echo Bay - Lake Mead National Rec Area,NV,ECHB,NRA,702.394.4000,166,WES,FT,DW,www.nps.gov/lake/planyourvisit/campgrounds.htm,478,0,RS,Overton,DP,NS,,
39.49688,-114.63916,East Creek,NV,EAST,NF,,8,NH,VT,NW,,479,0,NR,McGill,ND,NS,,
36.3075,-115.68192,Dolomite,NV,DOLO,NF,702.515.5400,31,NH,FT,DW,forestcamping.com/dow/intermtn/toiy.htm,480,0,RS,Indian Springs,ND,NS,,
39.56546,-120.06598,Dog Valley,CA,DOGV,NF,,8,NH,VT,NW,www.campingguidenevada.com/cgnes/standardlisting.asp?campcode=CASIEDOG,481,1,NR,Verdi,ND,NS,,
38.6214,-119.34,Desert Creek,NV,DESE,NF,,20,,,,forestcamping.com/dow/intermtn/toiy.htm,482,0,NR,Gardnerville,,,,
39.25188,-119.58699,Dayton State Park,NV,DAYT,SP,775.684.2770,10,NH,FTVT,DW,parks.nv.gov/dsp.htm,483,0,NR,Dayton,DP,NS,,
39.30462,-119.83294,Davis Creek,NV,DAVI,CP,775.849.0684,63,NH,FTVT,DW,www.campingguidenevada.com/cgnes/standardlisting.asp?campcode=NVWASDAV,484,0,,Carson City,DP,SH,,L$
38.81521,-115.35361,Currant Creek,NV,CURR,NF,,7,NH,VT,NW,www.publiclands.org/explore/site.php?plicstate=UT&id=1248,485,1,NR,,ND,NS,,
35.48816,-114.69133,Cottonwood Cove Upper,NV,COTU,NRA,702.297.1464,100,,FT,DW,www.nps.gov/lame/planyourvisit/upload/campCCuppr.pdf,486,0,NR,,,,,
35.49091,-114.68839,Cottonwood Cove  - Lake Mead National Rec Area,NV,COTL,NRA,702.297.1464,150,WES,FT,DW,www.nps.gov/lame/planyourvisit/upload/campCCuppr.pdf,487,0,RS,Cottonwood Cove,DP,NS,,
38.89967,-117.37621,Columbine,NV,COL1,NF,,5,NH,VT,NW,www.campingguidenevada.com/cgnes/standardlisting.asp?campcode=NVNYECOL,488,1,NR,Austin,ND,NS,,
39.21913,-114.55831,Cleve Creek,NV,CLEV,BLM,,12,NH,VT,NW,www.blm.gov/nv/st/en/prog/recreation/camping.html,489,0,NR,,ND,NS,,N$
38.1553,-115.6235,Cherry Creek,NV,CHER,NF,,6,NH,,,www.publiclands.org/explore/site.php?plicstate=NV&id=428,490,1,NR,,ND,NS,,
39.19079,-114.69439,Cave Lake State Park,NV,CAVE,SP,775.296.1505,35,,FT,DW,parks.nv.gov/cl.htm,492,0,NR,Ely,,SH,,
37.82086,-114.41505,Cathedral Gorge State Park,NV,CATH,SP,775.728.4460,22,NH,FT,DW,www.desertusa.com/nvcat/nvcat.html,493,0,NR,Panaca,,SH,,
36.13836,-114.72752,Callville Bay - Lake Mead National Rec Area,NV,CALL,NRA,702.565.8958,80,WES,FT,DW,www.nps.gov/lake/planyourvisit/campgrounds.htm,494,0,RS,Callville Bay,DP,NS,,
36.03524,-114.7994,Boulder Beach RV - Lake Mead National Rec Area,NV,BOUL,NRA,702.293.2540,154,WES,VT,DW,www.nps.gov/lame/upload/2010winterguidecorrected.pdf,495,0,RS,Boulder City,DP,NS,,
39.45809,-116.99703,Bob Scott,NV,BOBS,NF,775/964.2671,18,NH,FTVT,DW,freecampsites.net/bob-scott-cg/,496,1,NR,Austin,ND,NS,,N$
39.34633,-117.137,Big Creek,NV,BIGC,NF,,17,NH,VT,NW,forestcamping.com/dow/intermtn/toiy.htm,497,0,NR,Austin,ND,NS,,
41.76577,-115.70025,Big Bend,NV,BIGB,NF,,17,NH,VT,DW,forestcamping.com/dow/intermtn/humb.htm,498,0,NR,Mountain City,ND,NS,,
39.34908,-114.64276,Berry Creek,NV,BERR,NF,,5,NH,VT,NW,www.totalescape.com/destin/california-towns.php?tid=38,499,1,NR,Ely,ND,NS,,
38.86905,-117.59542,Berlin - Ichthyosaur State Park,NV,BERL,SP,775.964.2440,14,NH,VT,DW,parks.nv.gov/bi.htm,500,0,NR,Gabbs,DP,,,
37.51359,-114.081,Beaver Dam State Park,NV,BEAV,SP,775.728.4460,35,NH,VT,DW,parks.nv.gov/bd.htm,501,0,NR,Caliente,ND,NS,,
38.65462,-116.63918,Barley Creek,NV,BARL,NF,,10,,VT,NW,www.publiclands.org/explore/site.php?id=417,502,1,NR,Round Mountain,,,,
38.98687,-114.2397,Baker Creek - Great Basin National Park,NV,BAKE,NP,775.234.7331,32,NH,VT,DW,www.nps.gov/grba/,503,0,NR,Baker,ND,NS,,
41.02632,-115.08573,Angel Lake,NV,ANGL,NF,775.752.3357,27,NH,VT,DW,forestcamping.com/dow/intermtn/humb.htm,504,0,RS,Wells,ND,NS,,
41.02875,-115.050883,Angel Creek,NV,ANGC,NF,775.752.3357,18,NH,VT,DW,forestcamping.com/dow/intermtn/humb.htm,505,0,RS,Wells,ND,NS,,
38.4139,-118.6813,Alum Creek,NV,ALUM,NF,,,,,,www.rvparksusa.com/nv.htm,506,0,NR,,,,,
32.91315,-107.7806,Wrights Cabin,NM,WRIG,NF,,8,NH,VT,NW,www.publiclands.org/explore/site.php?id=8049&plicstate=NM,507,1,NR,Mimbres,ND,NS,,
33.4228,-108.1976,Wolf Hollow,NM,WOLF,NF,,6,,,,,508,0,NR,,,,,
33.40144,-108.57925,Willow Creek,NM,WILL,NF,,9,NH,VT,NW,www.tripleblaze.com/best/?c=86,509,1,NR,Reserve,ND,NS,,N$
36.6795,-105.67929,Wild Rivers Recreation Area,NM,WILD,BLM,,,,VT,DW,www.blm.gov/nm/st/en/prog/recreation/taos/wild_rivers_rec_area.html,510,0,NR,,,,,
33.45607,-105.74512,Westlake,NM,WEST,CP,575.336.4157,75,,FT,DW,ci.alamogordo.nm.us/coa/communityservices/bonitolake.htm,511,1,,Nogal,,,,
34.0242,-107.1307,Water Canyon,NM,WATE,NF,,16,NH,VT,NW,forestcamping.com/dow/southwst/cib.htm,512,0,NR,Magdalena,ND,NS,,
33.35011,-108.08169,Wall Lake,NM,WALL,NF,,6,NH,VT,NW,,513,0,NR,Silver City,ND,NS,,
35.7166,-106.7209,Vista Linda - Jemez Springs,NM,VIST,NF,,13,NH,VT,DW,forestcamping.com/dow/southwst/safe.htm,514,0,NR,San Ysidro,ND,NS,,L$
35.26602,-105.35498,Villanueva State Park,NM,VILL,SP,575.421.2957,33,NH,FT,DW,www.emnrd.state.nm.us/SPD/FindaPark.html,515,0,RS,Villanueva,DP,SH,PA,L$
33.68455,-105.92043,Valley of Fires,NM,VALL,BLM,575.648.2241,19,E,VT,NW,www.blm.gov/nm/st/en/prog/recreation/roswell/valley_of_fires.html,516,0,NR,Carrizozo,DP,SH,,
35.33883,-103.44568,Southside - Ute Lake State Park,NM,SOUU,SP,575.487.2284,,NH,FT,DW,www.emnrd.state.nm.us/SPD/FindaPark.html,517,0,RS,Logan,,,,
35.355933,-103.452966,North  - Ute Lake State Park,NM,NORU,SP,575.487.2284,,WE,FT,DW,www.emnrd.state.nm.us/SPD/FindaPark.html,518,0,RS,Logan,,,,
35.36741,-103.48922,Rogers - Logan - Windy - Ute Lake State Park,NM,ROGE,SP,575.487.2284,,WE,FT,DW,www.emnrd.state.nm.us/SPD/FindaPark.html,519,0,RS,Logan,,,,
36.1481,-105.4556,Upper La Junta,NM,UPLJ,NF,,8,NH,VT,DW,www.forestcamping.com/dow/southwst/carcmp.htm,520,1,NR,Penasco,ND,NS,,
36.8864,-106.3211,Upper Lagunitas,NM,UPPL,NF,,13,NH,VT,NW,forestcamping.com/dow/southwst/car.htm,521,0,NR,,ND,NS,,
32.8808,-105.7806,Upper Karr Canyon,NM,UPPK,NF,,15,NH,,,forestcamping.com/dow/southwst/linc.htm,522,0,NR,Cloudcroft,ND,NS,,
32.96954,-105.73054,Upper Fir,NM,UPPF,NF,,,NH,VT,NW,www.camprrm.com/New%20Mexico%20Campgrounds.htm,523,0,NR,Cloudcroft,ND,NS,,
33.0266,-108.154,Upper End,NM,UPPE,NF,,12,NH,VT,DW,forestcamping.com/dow/southwst/gila.htm,524,0,NR,Mimbres,ND,NS,,L$
36.6092,-106.3822,Trout Lakes,NM,TROU,NF,,12,NH,VT,NW,forestcamping.com/dow/southwst/car.htm,525,0,NR,Canjilon,ND,NS,,
33.4011,-105.8844,Three Rivers,NM,THR1,NF,,12,NH,VT,DW,forestcamping.com/dow/southwst/linc.htm,526,0,NR,Tularosa,ND,NS,,L$
35.64729,-106.305,Tetilla Peak - Cochiti Lake,NM,TETI,COE,505.465.0307,51,E,FT,DW,corpslakes.usace.army.mil/visitors/projects.cfm?Id=L403520,527,0,RS,Albuquerque,DP,SH,,L$
35.74196,-105.675,Tererro - State Fish and Game,NM,TERE,SFW,,10,NH,VT,NW,www.emnrd.state.nm.us/SPD/FindaPark.html,528,0,NR,Santa Fe,ND,NS,,
34.61092,-104.40149,Sumner Lake State Park,NM,SUMN,SP,575.355.2541,65,NH,FT,DW,www.emnrd.state.nm.us/SPD/FindaPark.html,529,0,RS,Fort Sumner,DP,SH,PA,
36.938433,-104.378866,Sugarite Canyon State Park,NM,SUGA,SP,575.445.5607,50,NH,FT,DW,www.emnrd.state.nm.us/SPD/FindaPark.html,530,0,RS,Raton,DP,SH,PA,
35.657716,-105.231733,Storrie Lake State Park,NM,STOR,SP,505.425.7278,45,NH,FT,DW,www.emnrd.state.nm.us/SPD/FindaPark.html,531,0,RS,Las Vegas,DP,SH,PA,L$
36.72942,-106.88004,Stone Lake,NM,STON,RES,,24,E,,NW,www.fishingworks.com/lakes/new-mexico/union/cuates-school/stone-lake/,532,0,,Dulce,DP,,,N$
33.5747,-107.404,Springtime,NM,SPRT,NF,,6,NH,VT,NW,www.allstays.com/Campgrounds/nm-magdalena-campgrounds.htm,533,1,NR,Monticello,ND,NS,,
35.37665,-104.19056,South Area - Conchas Lake State Park,NM,SOUC,SP,575.868.2270,,NH,FT,DW,www.emnrd.state.nm.us/SPD/FindaPark.html,534,0,RS,Conchas Dam,,,PA,
33.5299,-108.5867,South Fork Negrito,NM,SONE,NF,,7,NH,VT,NW,publiclands.org/explore/site.php?id=8057&plicstate=NM&SID=1268939512.13719&showshare=Y,535,1,NR,Reserve,ND,NS,,N$
33.4489,-105.7528,South Fork,NM,SOFO,NF,,60,NH,FT,DW,forestcamping.com/dow/southwst/linc.htm,536,0,NR,,ND,NS,,L$
32.9439,-105.725,Sleepy Grass,NM,SLEE,NF,,21,NH,VT,DW,forestcamping.com/dow/southwst/linc.htm,537,0,NR,Cloudcroft,ND,NS,,
33.4197,-105.7333,Skyline,NM,SKYL,NF,,17,NH,VT,NW,forestcamping.com/dow/southwst/linc.htm,538,0,NR,Ruidoso,ND,NS,,N$
36.830322,-107.58715,Sims Mesa - Navajo Lake State Park,NM,SIMN,SP,505.632.2278,44,NH,,DW,www.emnrd.state.nm.us/SPD/FindaPark.html,539,0,RS,Blanco,DP,NS,,
32.9733,-105.725,Silver,NM,SILV,NF,,29,NH,FTVT,DW,forestcamping.com/dow/southwst/linc.htm,540,0,NR,Cloudcroft,DP,SH,,
32.9756,-105.7233,Silver Overflow,NM,SILO,NF,,52,NH,FTVT,DW,forestcamping.com/dow/southwst/linc.htm,541,0,NR,Cloudcroft,ND,NS,,
35.93448,-106.68471,Seven Springs,NM,SEVE,NF,,7,NH,,NW,,542,0,NR,Seven Springs,ND,NS,,
34.65148,-106.74359,Senator Willie Chavez State Park,NM,SENA,SP,,12,E,,,www.emnrd.state.nm.us/SPD/FindaPark.html,543,0,,Belen,ND,NS,,
33.23046,-108.25762,Scorpion - Gila Cliff Dwelllings,NM,SCOR,NF,,17,NH,VT,DW,forestcamping.com/dow/southwst/gila.htm,544,0,NR,Mimbres,DP,NS,,
35.030166,-104.667783,Santa Rosa Lake State Park,NM,SANT,SP,575.472.3110,100,NH,FT,DW,www.emnrd.state.nm.us/SPD/FindaPark.html,545,0,RS,Santa Rosa,,,PA,
36.0891,-105.6101,Santa Barbara,NM,SANB,NF,,22,NH,VT,DW,forestcamping.com/dow/southwst/car.htm,546,0,NR,Penasco,ND,NS,,
35.8869,-106.6456,San Antonio-Jemez Springs,NM,SANA,NF,,30,HK,VT,DW,forestcamping.com/dow/southwst/safe.htm,547,0,NR,Jemez Springs,ND,NS,,L$
32.9706,-105.7256,Saddle,NM,SADD,NF,,16,NH,FTVT,DW,forestcamping.com/dow/southwst/linc.htm,548,0,NR,Cloudcroft,DP,SH,,
35.98074,-105.91606,Santa Cruz Lake,NM,SACR,BLM,575.758.8851,25,NH,VT,DW,www.nm.blm.gov/recreation/taos/santa_cruz_lake.htm,549,0,NR,Chimayo,ND,NS,,
35.97782,-106.067,Santa Clara Canyon,NM,SACL,RES,,86,,,DW,www.planetware.com/santa-clara-pueblo/santa-clara-canyon-us-nm-scc.htm,550,0,,Espanola,,,,
32.185566,-107.6131,Rockhound State Park,NM,ROCK,SP,575.546.6182,29,NH,FT,DW,www.emnrd.state.nm.us/SPD/FindaPark.html,551,0,RS,Deming,DP,SH,PA,
36.1006,-106.7231,Rio Puerco,NM,RIOP,NF,,4,NH,VT,NW,www.newmexicorvparksandcampgrounds.org/public_camping/,552,1,NR,Coyote,ND,NS,,N$
35.9969,-106.8061,Rio De Las Vacas,NM,RIOD,NF,,16,NH,VT,DW,forestcamping.com/dow/southwst/safe.htm,553,0,NR,Cuba,ND,NS,,L$
36.3546,-106.6734,Rio Chama,NM,RIOC,NF,,10,NH,VT,NW,www.campingwithaview.com/Z_Campgrounds/Public/NM/Rio_Chama/Home_RioChama.htm,554,1,NR,Abiquiu,ND,NS,,
36.2469,-106.42748,Riana - Abiquiu Reservoir,NM,RIAN,COE,505.685.4371,53,E,FTVT,DW,corpslakes.usace.army.mil/visitors/projects.cfm?Id=L400070,555,0,RS,Abiquiu,DP,SH,,L$
35.53802,-108.60593,Red Rock Park,NM,REDR,CP,505.722.3839,25,E,FT,DW,www.ci.gallup.nm.us/rrp/00182_redrock.html,556,0,,Gallup,DP,SH,,
35.8597,-106.6244,Redondo,NM,REDO,NF,,59,NH,VT,DW,forestcamping.com/dow/southwst/safe.htm,557,0,RS,Jemez Springs,ND,NS,,L$
34.6218,-106.411,Red Canyon,NM,RECA,NF,,38,NH,VT,DW,forestcamping.com/dow/southwst/cib.htm,558,0,NR,Tajique,ND,NS,,L$
32.90903,-107.81673,Railroad Canyon,NM,RAIL,NF,,6,NH,VT,NW,www.tripleblaze.com/2/2637/Campgrounds/Railroad-Canyon-Campground.html,559,1,NR,Mimbres,ND,NS,,N$
35.4058,-108.5402,Quaking Aspen,NM,QUAK,NF,,20,NH,VT,NW,forestcamping.com/dow/southwst/cib.htm,560,0,NR,Wingate,ND,NS,,L$
33.5934,-108.9612,Pueblo Park,NM,PUEB,NF,,10,NH,VT,NW,www.publiclands.org/explore/site.php?id=194,561,1,NR,Reserve,ND,NS,,N$
36.80111,-107.69254,Pine River - Navajo Lake State Park,NM,PINR,SP,505.632.2278,103,,FT,DW,www.emnrd.state.nm.us/SPD/FindaPark.html,562,0,RS,,,,,
34.1389,-108.4822,Pinon - Quemado Lake,NM,PINQ,NF,,22,E,VT,DW,forestcamping.com/dow/southwst/gila.htm,563,0,NR,Quemado,DP,NS,,L$
36.821777,-107.619873,Pine River - Navajo Lake State Park,NM,PINN,SP,505.632.2278,103,,,,www.emnrd.state.nm.us/SPD/FindaPark.html,564,0,RS,Navajo Dam,,,,
32.9675,-105.7369,Pines,NM,PINE,NF,,24,NH,VT,DW,forestcamping.com/dow/southwst/linc.htm,565,0,NR,Cloudcroft,ND,NS,,
32.86949,-107.30583,Percha Dam State Park,NM,PERC,SP,575.743.3942,50,HK,FT,DW,www.emnrd.state.nm.us/SPD/FindaPark.html,566,0,RS,Caballo,ND,SH,PA,
31.82456,-107.64061,Pancho Villa State Park,NM,PAVI,SP,575.531.2711,62,NH,FT,DW,www.emnrd.state.nm.us/SPD/FindaPark.html,567,0,RS,Columbus,DP,SH,PA,L$
35.7044,-106.6264,Paliza,NM,PALI,NF,,30,NH,VT,NW,forestcamping.com/dow/southwst/safe.htm,568,0,RS,San Ysidra,ND,NS,,L$
35.8298,-105.6636,Panchuela,NM,PACH,NF,,6,NH,VT,DW,www.fs.fed.us/r3/sfe/recreation/districts/pecos/camping/panchuela.html,569,1,NR,Pecos,ND,NS,,L$
36.33372,-105.74066,Taos Junction,NM,TAOS,BLM,505.758.8851,,NH,VT,DW,www.nm.blm.gov/recreation/taos/orilla_verde_rec_area.htm,570,0,NR,Carson,ND,NS,,
32.74509,-105.91524,Oliver Lee State Park,NM,OLIV,SP,575.437.8284,44,NH,FT,DW,www.emnrd.state.nm.us/SPD/FindaPark.html,571,0,RS,Alamogordo,DP,SH,PA,L$
35.1585,-108.1085,Ojo Redondo,NM,OJOR,NF,,15,NH,VT,NW,forestcamping.com/dow/southwst/cib.htm,572,0,NR,Thoreau,ND,NS,,N$
34.25649,-103.34882,Oasis State Park,NM,OASI,SP,575.356.5331,23,E,FT,DW,www.emnrd.state.nm.us/SPD/FindaPark.html,573,0,RS,Portales,DP,SH,,L$
33.3961,-105.7467,Oak Grove,NM,OAKG,NF,,30,NH,VT,NW,forestcamping.com/dow/southwst/linc.htm,574,0,NR,Ruidoso,ND,NS,,L$
35.42645,-104.18575,North Area - Conchas Lake State Park,NM,NORC,SP,575.868.2270,145,E,FT,DW,www.emnrd.state.nm.us/SPD/FindaPark.html,575,0,RS,Conchas Dam,,,,
34.67062,-106.40945,New Canyon,NM,NEWC,NF,,10,NH,VT,NW,www.forestcamping.com/dow/southwst/cibcmp.htm,576,1,NR,Tajique,ND,NS,,
35.94159,-105.39794,Morphy Lake State Park,NM,MORP,SP,575.387.2328,24,NH,VT,NW,www.emnrd.state.nm.us/SPD/FindaPark.html,577,0,NR,Mora,ND,NS,,L$
36.04752,-104.37716,Mills Canyon,NM,MILL,NF,575.374.9652,12,NH,VT,NW,freecampsites.net/mills-canyon-campground/,578,1,NR,Mills,ND,NS,,N$
32.93664,-107.59415,Middle Percha,NM,MIDD,NF,,5,,,NW,,579,0,NR,Hillsboro,,,,
33.0336,-108.159,Mesa,NM,MESA,NF,,36,E,FT,DW,forestcamping.com/dow/southwst/gila.htm,580,0,NR,Mimbres,ND,NS,,
32.9251,-108.2136,McMillan,NM,MCMI,NF,,3,NH,VT,NW,www.tripleblaze.com/best/?c=86,581,1,NR,Silver City,ND,NS,,N$
35.370533,-108.52325,McGaffey,NM,MCGA,NF,,29,HK,VT,NW,www.forestcamping.com/dow/southwst/cibcmp.htm,582,0,NR,Gallup,ND,NS,,
36.7781,-105.1177,McCrystal,NM,MCCR,NF,,60,NH,VT,NW,forestcamping.com/dow/southwst/car.htm,583,0,NR,Costilla,ND,NS,,
34.60336,-106.36147,Manzano Mountains State Park,NM,MANZ,SP,505.632.8645,37,NH,FT,DW,www.emnrd.state.nm.us/SPD/FindaPark.html,584,0,RS,Mountainair,DP,NS,PA,L$
35.3664,-108.5223,Maffey Oso,NM,MAFF,NF,,29,,,,forestcamping.com/dow/southwst/cib.htm,585,0,NR,,,,,
36.8847,-106.3225,Lower Lagunitas,NM,LOWL,NF,,13,,VT,NW,forestcamping.com/dow/southwst/car.htm,586,0,NR,Tierra Amarilla,,,,
32.8986,-105.8128,Lower Karr Canyon,NM,LOWK,NF,,6,NH,VT,NW,,587,0,NR,Cloudcroft,ND,NS,,N$
36.5488,-105.5475,Lower Hondo,NM,LOWH,NF,,4,NH,VT,NW,,588,0,NR,Taos,ND,NS,,N$
36.9573,-106.1759,Los Pinos,NM,LOSP,NF,,5,NH,,NW,,589,0,NR,Tres Piedras,ND,NS,,
35.2019,-107.7195,Lobo Canyon,NM,LOBO,NF,,9,NH,VT,NW,forestcamping.com/dow/southwst/cib.htm,590,0,NR,Grants,ND,NS,,N$
32.488833,-106.9148,Leasburg Dam State Park,NM,LEAS,SP,575.524.4068,31,NH,FT,DW,www.emnrd.state.nm.us/SPD/FindaPark.html,591,0,RS,Las Cruces,DP,SH,PA,L$
36.382,-105.5214,Las Petacas,NM,LASP,NF,,9,NH,VT,NW,www.explorenm.com/camping/,592,1,NR,Taos,ND,NS,,
36.3682,-105.47643,La Sombra,NM,LASO,NF,,13,NH,VT,NW,forestcamping.com/dow/southwst/car.htm,593,0,NR,Taos,ND,NS,,
35.81474,-106.52472,Las Conchas,NM,LASC,NF,,9,NH,VT,NW,,594,0,NR,Jemez Springs,ND,NS,,
36.1294,-105.4908,La Junta Canyon,NM,LAJU,NF,,7,,VT,NW,www.forestcamping.com/dow/southwst/carcmp.htm,595,1,NR,Vadito,,,,
36.74133,-106.99988,La Jara Lake,NM,LAJA,RES,,20,,,NW,outdoors.webshots.com/photo/1263175353021435239cVDMPb,596,0,,Dulce,,,,
36.8843,-106.1088,Laguna Larga,NM,LAGL,NF,,7,NH,,,www.newmexicooutdoor.com/Fly_Fishing.php,597,1,NR,Tres Piedras,ND,NS,,
36.69499,-105.49482,La Bobita,NM,LABO,NF,,15,NH,VT,NW,forestcamping.com/dow/southwst/car.htm,598,0,NR,Red River,ND,NS,,
34.1358,-108.4859,Juniper - Quemado Lake,NM,JUNQ,NF,,18,E,VT,DW,forestcamping.com/dow/southwst/gila.htm,599,0,NR,Quemado,ND,NS,,
36.7084,-105.4357,Junebug,NM,JUNE,NF,,20,NH,VT,DW,forestcamping.com/dow/southwst/car.htm,600,0,NR,Red River,ND,NS,,
35.79612,-106.27942,Juniper - Bandelier National Monument,NM,JUNB,NM,505.672.3861,66,NH,FT,DW,www.nps.gov/band/planyourvisit/juniper-family-campground.htm,601,0,NR,White Rock,DP,NS,,L$
34.67148,-106.46808,John F Kennedy,NM,JOP1,NF,,18,NH,VT,NW,www.city-data.com/forum/albuquerque/117122-john-f-kennedy-campground.html,602,0,NR,Belen,ND,NS,,
35.7037,-105.4689,Johnson Mesa,NM,JOHN,NF,,14,NH,,,forestcamping.com/dow/southwst/safe.htm,603,0,NR,Las Vegas,ND,NS,,
35.8245,-106.6079,Jemez Falls,NM,JEME,NF,,52,NH,VT,DW,forestcamping.com/dow/southwst/safe.htm,604,0,NR,Jemez Springs,ND,NS,,L$
32.9047,-105.5044,James Canyon,NM,JAME,NF,,5,NH,VT,NW,,605,0,NR,Tularosa,ND,NS,,N$
35.8389,-105.6552,Jacks Creek,NM,JACK,NF,,40,NH,,DW,forestcamping.com/dow/southwst/safe.htm,606,0,NR,Pecos,ND,NS,,
34.94157,-106.67584,Isleta Lake RV,NM,ISLE,RES,505.244.8102,50,E,FT,DW,www.rvparkreviews.com/regions/New_Mexico/Isleta_Pueblo.html,607,1,,Albequerque,DP,SH,,
35.8399,-105.6197,Iron Gate,NM,IROG,NF,,14,NH,VT,NW,forestcamping.com/dow/southwst/safe.htm,608,0,NR,Pecos,ND,NS,,L$
32.9089,-107.8042,Iron Creek,NM,IROC,NF,,15,NH,VT,NW,forestcamping.com/dow/southwst/gila.htm,609,0,NR,Mimbres,ND,NS,,N$
35.73353,-105.83578,Hyde Memorial State Park,NM,HYDE,SP,505.983.7175,57,NH,FT,DW,www.emnrd.state.nm.us/SPD/FindaPark.html,610,0,RS,Santa Fe,DP,NS,PA,
36.7043,-106.2368,Hopewell Lake,NM,HOPE,NF,,21,NH,VT,NW,forestcamping.com/dow/southwst/car.htm,611,0,NR,Tres Piedras,ND,NS,,
35.7732,-105.7007,Holy Ghost,NM,HOL2,NF,,24,NH,VT,DW,forestcamping.com/dow/southwst/safe.htm,612,0,NR,Santa Fe,ND,NS,,L$
35.720947,-106.92163,Holy Ghost,NM,HOL1,RES,,,NH,,,www.explorenm.com/camping/HolyGhost/,613,0,,,ND,NS,,
36.11388,-105.63947,Hodges,NM,HODG,NF,,14,,,NW,www.newmexicorvparksandcampgrounds.org/public_camping/,614,0,NR,Vadito,,,,
36.69373,-106.65699,Heron Lake State Park,NM,HERO,SP,505.588.7470,300,WE,FT,DW,www.emnrd.state.nm.us/SPD/FindaPark.html,615,0,RS,Los Ojos,,,PA,
33.8183,-108.9905,Head Of Ditch,NM,HEAD,NF,,12,NH,VT,NW,freecampsites.net/head-of-the-ditch/,616,1,NR,Alpine  AZ,ND,NS,,N$
33.1785,-108.2056,Grapevine,NM,GRAP,NF,575.536.2250,20,NH,VT,NW,freecampsites.net/grapevine-campground/,617,1,NR,Mimbres,ND,NS,,N$
36.6893,-105.5406,Goat Hill,NM,GOAT,NF,,6,NH,VT,NW,www.roadcamping.com/rv/New_Mexico/Questa/property_4001/rv_parks_campgrounds.html,618,1,NR,Questa,ND,NS,,
35.65201,-105.7986,Glorieta,NM,GLOR,NF,,5,,VT,NW,www.allstays.com/Campgrounds/nm-pecos-campgrounds.htm,619,1,NR,Gloriete,,,,
32.9001,-107.82309,Gallinas - Upper,NM,GALU,NF,,10,NH,VT,NW,www.publiclands.org/explore/site.php?id=8052&plicstate=NM,620,1,NR,Mimbres,ND,NS,,N$
36.0505,-107.85951,Gallo - Chaco Culture National Park,NM,GALC,NP,505.786.7014,49,NH,FT,NW,www.nps.gov/chcu/planyourvisit/campgrounds.htm,621,0,NR,Kimbeto,DP,NS,,L$
32.88706,-107.84446,Gallinas - Lower,NM,GALL,NF,,12,NH,VT,NW,www.publiclands.org/explore/site.php?id=8051&plicstate=NM,622,1,NR,Mimbres,ND,NS,,N$
34.7934,-106.382,Fourth Of July,NM,FOUR,NF,,25,NH,VT,DW,forestcamping.com/dow/southwst/cib.htm,623,0,NR,Tajique,ND,NS,,L$
33.1842,-108.2067,Forks,NM,FORK,NF,,7,NH,VT,NW,,624,0,NR,Mimbres,ND,NS,,N$
35.687633,-105.694533,Field Tract,NM,FIEL,NF,,15,NH,FT,DW,forestcamping.com/dow/southwst/safe.htm,625,0,NR,Pecos,ND,NS,,L$
35.88386,-106.72849,Fenton Lake State Park,NM,FENT,SP,575.829.3630,35,NH,VT,DW,www.emnrd.state.nm.us/SPD/FindaPark.html,626,0,RS,Jemez Springs,ND,NS,PA,L$
36.7055,-105.4577,Fawn Lakes,NM,FAWN,NF,,22,NH,VT,DW,forestcamping.com/dow/southwst/car.htm,627,0,NR,Red River,ND,NS,,
35.6983,-105.4214,EV Long,NM,EVLO,NF,,20,NH,VT,DW,forestcamping.com/dow/southwst/safe.htm,628,0,NR,Las Vegas,ND,NS,,
36.61411,-106.73806,El Vado Lake State Park,NM,ELVA,SP,575.588.7247,99,WE,FT,DW,www.emnrd.state.nm.us/SPD/FindaPark.html,629,0,RS,Tierra Amarill,DP,SH,PA,L$
36.4017,-106.2536,El Rito,NM,ELRI,NF,,8,,VT,NW,www.allstays.com/Campgrounds/nm-el-rito-campgrounds.htm,630,1,NR,El Rito,,,,
35.7103,-105.4117,El Porvenir,NM,ELPO,NF,,13,NH,VT,DW,forestcamping.com/dow/southwst/safe.htm,631,0,NR,Las Vegas,ND,NS,,L$
35.03691,-108.33601,El Morro National Monument,NM,ELMO,NM,505.783.4226,9,NH,VT,DW,www.nps.gov/elmo/planyourvisit/campgrounds.htm,632,0,NR,Ramah,,,,
33.180766,-107.20875,Elephant Butte Lake State Park,NM,ELEB,SP,575.744.5923,132,HK,FT,DW,www.emnrd.state.nm.us/SPD/FindaPark.html,633,0,RS,Truth Or Consequences,DP,SH,PA,
36.7084,-105.4493,Elephant Rock,NM,ELEP,NF,,22,NH,VT,DW,forestcamping.com/dow/southwst/car.htm,634,0,NR,Red River,ND,NS,,
34.1377,-108.4712,El Caso - Quemado Lake,NM,ELCQ,NF,,22,NH,VT,NW,forestcamping.com/dow/southwst/gila.htm,636,0,NR,Quemado,ND,NS,,N$
36.3596,-106.5261,Echo Amphitheater,NM,ECHO,NF,,9,NH,VT,DW,www.publiclands.org/explore/site.php?id=120,637,1,NR,Abiquiu,ND,NS,,L$
33.38868,-105.75326,Eagle Creek Lakes,NM,EAGL,RES,,,NH,FT,DW,www.hombregordito.com/New%20Mexico%20Heritage/nmfishing.html,638,0,,Tularosa,ND,NS,,
36.1349,-105.4768,Duran,NM,DURA,NF,,12,NH,VT,DW,forestcamping.com/dow/southwst/car.htm,639,0,NR,Penasco,ND,NS,,
36.87999,-107.00229,Dulce Lake,NM,DULC,RES,,15,,,NW,www.fishingworks.com/lakes/new-mexico/rio-arriba/wirt-canyon/dulce-lake/,640,0,,Dulce,,,,
33.4223,-108.4983,Dipping Vat,NM,DIPP,NF,,40,NH,VT,DW,freecampsites.net/dipping-vat/,641,1,NR,Reserve,ND,NS,,L$
32.9439,-105.7433,Deerhead,NM,DEER,NF,,20,NH,VT,DW,forestcamping.com/dow/southwst/linc.htm,642,0,NR,Cloudcroft,ND,NS,,
34.15512,-107.8581,Datil Well,NM,DATI,BLM,,22,NH,VT,DW,freecampsites.net/datil-well/,643,1,NR,Datil,ND,NS,,L$
36.909,-106.2672,Cruces Basin,NM,CRUC,NF,,21,NH,,,forestcamping.com/dow/southwst/car.htm,644,0,NR,Tierra Amarilla,ND,NS,,
36.188,-105.23297,Coyote Creek State Park,NM,COYO,SP,575.387.2328,64,NH,FT,DW,www.emnrd.state.nm.us/SPD/FindaPark.html,645,0,RS,Guadalupita,DP,SH,PA,L$
35.8127,-105.6638,Cowles,NM,COWL,NF,,9,NH,VT,DW,www.explorenm.com/camping/,646,1,NR,Pecos,ND,NS,,L$
35.67085,-105.64041,Cow Creek,NM,COWC,NF,505.757.6121,5,NH,,NW,freecampsites.net/cow-creek-campground-2/,647,1,NR,Pecos,ND,NS,,N$
34.13731,-108.49051,Cove - Quemado Lake,NM,COVQ,NF,,,NH,VT,DW,www.anglerguide.com/newmexico/quemado.html,648,0,NR,Quemado,ND,NS,,
36.81116,-107.6773,Cottonwood - Navajo Lake State Park,NM,COTN,SP,505.632.2278,47,E,FT,DW,www.emnrd.state.nm.us/SPD/FindaPark.html,649,0,RS,Bloomfield,DP,,,
35.32911,-106.55786,Coronado,NM,CORO,CP,505.867.3311,,E,FT,DW,www.townofbernalillo.org/depts/campground.htm,650,1,,Bernalillo,DP,SH,,
36.1608,-105.59,Comales,NM,COMA,NF,,10,NH,VT,NW,forestcamping.com/dow/southwst/car.htm,651,0,NR,Penasco,ND,NS,,
36.68,-105.5142,Columbine,NM,COLU,NF,,27,NH,VT,DW,forestcamping.com/dow/southwst/car.htm,652,0,NR,Questa,ND,NS,,
35.642366,-106.333,Cochiti - Cochiti Lake,NM,COCH,COE,505.465.0307,60,E,FT,DW,corpslakes.usace.army.mil/visitors/projects.cfm?Id=L403520,653,0,RS,Albuquerque,DP,SH,PA,L$
35.2325,-107.7007,Coalmine Canyon,NM,COAL,NF,,15,NH,VT,NW,forestcamping.com/dow/southwst/cib.htm,654,0,RS,Grants,,,,
35.9966,-106.8275,Clear Creek,NM,CLEA,NF,,15,NH,VT,NW,forestcamping.com/dow/southwst/safe.htm,655,0,NR,Cuba,ND,NS,,L$
36.57335,-103.30114,Clayton Lake State Park,NM,CLAY,SP,575.374.8808,37,NH,FT,DW,www.emnrd.state.nm.us/SPD/FindaPark.html,656,0,RS,Clayton,,,PA,
32.59043,-107.97586,City of Rocks State Park,NM,CITY,SP,575.536.2800,55,NH,FT,DW,www.emnrd.state.nm.us/SPD/FindaPark.html,657,0,RS,Deming,ND,SH,PA,
36.54563,-105.13392,Cimarron Canyon State Park,NM,CIMC,SP,575.377.6271,88,NH,FT,DW,www.emnrd.state.nm.us/SPD/FindaPark.html,658,0,RS,Eagle Nest,,NS,PA,
36.7703,-105.2054,Cimarron,NM,CIMA,NF,,35,NH,VT,DW,forestcamping.com/dow/southwst/car.htm,659,0,NR,Costilla,ND,NS,,
36.5595,-105.5333,Cuchillo,NM,CHUC,NF,,3,NH,VT,NW,,660,0,NR,Taos,ND,NS,,
36.03487,-104.1564,Chicosa Lake State Park,NM,CHIC,SP,,12,,FT,DW,www.emnrd.state.nm.us/SPD/FindaPark.html,661,0,NR,Roy,,,,
32.9147,-108.2247,Cherry Creek,NM,CHER,NF,,12,NH,VT,NW,www.tripleblaze.com/2/2623/Campgrounds/Cherry-Creek-Campground.html,662,1,NR,Silver City,ND,NS,,N$
36.3699,-105.4797,Capulin,NM,CAPU,NF,,11,NH,VT,NW,www.allstays.com/Campgrounds/nm-capulin-campgrounds.htm,663,1,NR,Taos,ND,NS,,
34.69809,-106.40164,Capilla,NM,CAPI,NF,,8,NH,VT,DW,forestcamping.com/dow/southwst/cib.htm,664,0,NR,Manzano,ND,NS,,N$
36.54945,-106.34414,Canjilon Lakes,NM,CANJ,NF,,4,NH,VT,NW,forestcamping.com/dow/southwst/car.htm,665,0,NR,Cebolla,ND,NS,,
35.92976,-106.70918,Calaveras,NM,CALA,CP,,5,E,,,www.us-places.com/map-places.php?placeid=274828,666,0,,Jemez Springs,,,,
36.7476,-105.4982,Cabresto Lake,NM,CABR,NF,,9,NH,VT,NW,www.explorenm.com/camping/,667,1,NR,Questa,ND,NS,,N$
32.90715,-107.3117,Caballo Lake State Park,NM,CABA,SP,575.743.3942,135,NH,FT,DW,www.emnrd.state.nm.us/SPD/FindaPark.html,668,0,RS,Caballo,DP,SH,PA,
32.56399,-104.38085,Brantley Lake State Park,NM,BRAN,SP,505.457.2384,51,NH,FT,DW,www.emnrd.state.nm.us/SPD/FindaPark.html,669,0,RS,Carlsbad,DP,SH,PA,L$
33.34428,-104.33827,Bottomless Lakes State Park,NM,BOTT,SP,505.624.6056,37,NH,FT,DW,www.emnrd.state.nm.us/SPD/FindaPark.html,670,0,RS,Roswell,DP,SH,PA,
34.762704,-106.4038,Bosque,NM,BOSQ,NF,,18,,,,forestcamping.com/dow/southwst/cib.htm,671,0,NR,Estancia,,,,
35.9793,-105.7725,Borrego Mesa,NM,BORR,NF,,9,NH,VT,NW,,672,0,NR,Espanola,ND,NS,,N$
35.301566,-108.10745,Bluewater Lake State Park,NM,BLUE,SP,505.876.2391,149,NH,FT,DW,www.emnrd.state.nm.us/SPD/bluewaterlakestatepark.html,673,0,RS,Prewitt,,,PA,
35.7692,-105.8086,Big Tesuque,NM,BIGT,NF,,10,NH,VT,NW,www.fs.fed.us/r3/sfe/recreation/districts/espanola/camping/bigtesuque.html,674,1,NR,Santa Fe,ND,NS,,
33.3238,-108.8869,Big Horn,NM,BIGH,NF,,7,,VT,NW,www.recreation.gov/recAreaDetails.do?contractCode=NRSO&facilityId=202126&agencyCode=126,675,1,NR,Glenwood,,,,
33.3972,-108.5931,Ben Lilly,NM,BENL,NF,,7,NH,VT,NW,,676,0,NR,Reserve,ND,NS,,N$
33.5386,-105.3586,Baca,NM,BACA,NF,,70,NH,VT,NW,forestcamping.com/dow/southwst/linc.htm,677,0,NR,Tularosa,ND,NS,,
35.7944,-105.8053,Aspen Basin,NM,ASPE,NF,,10,NH,VT,NW,freecampsites.net/aspen-basin-campground/,678,1,NR,Santa Fe,ND,NS,,N$
34.0911,-108.5658,Armijo Springs,NM,ARMI,NF,,5,NH,VT,NW,freecampsites.net/armijo-springs/,679,1,NR,Quemado,ND,NS,,N$
33.8323,-108.6228,Apache Creek,NM,APCC,NF,,20,NH,VT,NW,www.explorenm.com/camping/ApacheCreek/,680,1,NR,Reserve,ND,NS,,N$
32.96679,-105.72882,Apache,NM,APAC,NF,,24,NH,VT,DW,forestcamping.com/dow/southwst/linc.htm,681,0,NR,Cloudcroft,DP,SH,,
36.106934,-105.48315,Angostura,NM,ANGO,NF,,,,,,www.recreation.gov/recAreaDetails.do?contractCode=NRSO&recAreaId=1161&agencyCode=129,682,0,NR,Dixon,,,,
36.55956,-107.87188,Angel Peak,NM,ANGE,BLM,,6,NH,VT,NW,www.nm.blm.gov/recreation/farmington/angel_peak_scenic_area.htm,683,0,NR,,ND,NS,,
32.37235,-106.55977,Aguirre Springs,NM,AGUI,BLM,,57,NH,VT,DW,www.nm.blm.gov/recreation/las_cruces/aguirre_spring_campground.htm,684,0,NR,Las Cruces,ND,NS,,L$
36.13532,-105.52917,Agua Piedra,NM,AGUA,NF,,44,NH,VT,DW,forestcamping.com/dow/southwst/car.htm,685,0,NR,Penasco,ND,NS,,
33.41797,-108.44211,Aeroplane Mesa,NM,AERO,NF,,6,NH,VT,NW,www.newmexicorvparksandcampgrounds.org/public_camping/,686,1,NR,Reserve,ND,NS,,N$
44.2646,-71.5006,Zealand,NH,ZEAL,NF,,11,NH,VT,,forestcamping.com/dow/eastern/wm.htm,687,0,NR,Twin Mountain,ND,NS,,
44.0751,-71.7937,Wildwood,NH,WILW,NF,,26,NH,VT,,forestcamping.com/dow/eastern/wm.htm,688,0,NR,North Woodstock,ND,NS,,
44.3054,-71.0646,Wild River,NH,WILR,NF,,12,NH,VT,,forestcamping.com/dow/eastern/wm.htm,689,0,NR,Gilead,ND,NS,,
43.9544,-71.2139,White Ledge,NH,WHIL,NF,603.447.5448,28,NH,VT,,forestcamping.com/dow/eastern/wm.htm,690,0,RS,Conway,ND,NS,,
43.845459,-71.225342,White Lake State Park,NH,WHIK,SP,603.323.7350,200,NH,,DW,www.nhstateparks.org/state-parks/alphabetical-order/white-lake-state-park/,691,0,RS,Tamworth,DP,SH,,
43.9419,-71.5092,Waterville,NH,WATE,NF,603.536.6100,26,NH,VT,,forestcamping.com/dow/eastern/wm.htm,692,0,RS,Waterville Valley,ND,NS,,
44.703613,-71.049805,Umbagog Lake,NH,UMBA,SP,603.482.7795,70,E,FT,DW,www.nhstateparks.org/state-parks/alphabetical-order/umbagog-lake-state-park/,693,0,RS,Cambridge,DP,SH,PA,
43.9953,-71.6359,Tripoli Rd,NH,TRIP,NF,,200,NH,,NW,forestcamping.com/dow/eastern/wm.htm,694,0,NR,Campton,ND,NS,,
44.2581,-71.5039,Sugarloaf 2,NH,SUG2,NF,603.536.6100,29,NH,,,forestcamping.com/dow/eastern/wm.htm,695,0,RS,Twin Mountain,ND,NS,PA,
44.2604,-71.5047,Sugarloaf 1,NH,SUG1,NF,603.536.6100,32,NH,VT,,forestcamping.com/dow/eastern/wm.htm,696,0,RS,Twin Mountain,ND,NS,PA,
43.7201,-72.260683,Storrs Pond Rec Area,NH,STOR,CP,603.643.2134,30,E,,DW,www.storrspond.org/,697,0,,Hanover,DP,SH,,
44.0087,-71.6489,Russell Pond,NH,RUSS,NF,,86,NH,,DW,forestcamping.com/dow/eastern/wm.htm,698,0,NR,Lincoln,ND,SH,,
43.233566,-72.115666,Pillsbury State Park,NH,PILL,SP,603.863.2860,40,NH,,,www.nhstateparks.org/state-parks/alphabetical-order/pillsbury-state-park/,699,0,RS,Washington,,,PA,
43.079866,-71.172883,Pawtuckaway State Park,NH,PAWT,SP,603.895.3031,190,NH,,DW,www.nhstateparks.com/,700,0,RS,Nottingham,,SH,,
43.9976,-71.371,Passaconaway,NH,PASS,NF,,33,NH,VT,,forestcamping.com/dow/eastern/wm.htm,701,0,NR,Conway,ND,NS,,
44.400146,-71.231445,Moose Brook State Park,NH,MOOS,SP,603.466.3860,60,NH,,,www.nhstateparks.org/state-parks/alphabetical-order/moose-brook-state-park/,702,0,RS,Gorham,,,PA,
42.84375,-72.074219,Monadnock State Park,NH,MONA,SP,603.532.8862,30,NH,,,www.nhstateparks.org/state-parks/alphabetical-order/monadnock-state-park/,703,0,RS,Jaffrey,,,,
44.73837,-71.14398,Mollidgewock State Park,NH,MOLL,SP,603.482.3373,45,NH,,,www.nhstateparks.org/state-parks/alphabetical-order/mollidgewock-state-park/,704,0,RS,Errol,ND,SH,PA,
45.0602,-71.30247,Lake Francis State Park,NH,LAKE,SP,603.538.6965,40,E,,,www.nhstateparks.org/state-parks/alphabetical-order/lake-francis-state-park/,705,0,RS,Pittsburg,DP,,PA,
44.139016,-71.685083,Lafayette - Franconia Notch State Park,NH,LAFA,SP,603.823.9513,98,NH,,,www.nhstateparks.org/state-parks/alphabetical-order/franconia-notch-state-park/,706,0,RS,Franconia Notch,DP,SH,,
43.9979,-71.3339,Jigger Johnson,NH,JIGG,NF,,76,NH,,DW,forestcamping.com/dow/eastern/wm.htm,707,0,NR,Conway,ND,SH,,
44.2504,-71.5561,Haystack Road,NH,HAYS,NF,,11,,,,forestcamping.com/dow/eastern/wm.htm,708,0,NR,Twin Mountain,,,,
44.0637,-71.5942,Hancock,NH,HANC,NF,,56,NH,,,forestcamping.com/dow/eastern/wm.htm,709,0,NR,Lincoln,ND,NS,,
42.89891,-70.81585,Hampton Beach State Park,NH,HAMP,SP,603.926.3784,,WES,,,www.nhstateparks.com/hampton.html,710,0,RS,Hampton,DP,,,
43.545654,-71.364746,Gunstock Area,NH,GUNS,CP,800.GUNSTOCK,300,E,,DW,www.gunstock.com/,711,0,,Gilford,DP,SH,,
42.95752,-71.886719,Greenfield State Park,NH,GREE,SP,603.547.3497,250,NH,,DW,www.newhampshire.com/state-parks/greenfield-state-park.aspx,712,1,RS,Greenfield,DP,SH,PA,
44.2258,-71.6235,Gale River Loop,NH,GALE,NF,,11,,,,forestcamping.com/dow/eastern/wm.htm,713,0,NR,Bethlehem,,,,
43.574463,-71.35498,Ellacoya State Beach and RV Park,NH,ELLA,SP,603.293.7821,37,WES,FT,DW,www.nhstateparks.com/ellacoya.html,714,1,RS,Gilford,DP,SH,,
44.178467,-71.400146,Dry River - Crawford Notch State Park,NH,DRYR,SP,603.374.2272,35,NH,,,www.nhstateparks.org/state-parks/alphabetical-order/crawford-notch-state-park/,715,0,RS,Harts Location,,,PA,
44.3326,-71.2193,Dolly Copp,NH,DOLL,NF,603.466.2713,177,NH,,,forestcamping.com/dow/eastern/wm.htm,716,0,RS,Gorham,,,,
45.190674,-71.190674,Deer Mountain,NH,DEER,SF,603.538.6965,25,NH,,,www.nhstateparks.org/state-parks/alphabetical-order/deer-mountain-campground/,717,0,RS,Pittsburg,,,PA,
44.0032,-71.2322,Covered Bridge,NH,COVE,NF,603.447.2166,49,NH,,,forestcamping.com/dow/eastern/wm.htm,718,0,RS,Conway,,,,
44.944092,-71.327881,Coleman State Park,NH,COLE,SP,603.271.3628,24,NH,,DW,www.nhstateparks.org/state-parks/alphabetical-order/coleman-state-park/,719,0,RS,Stewartstown,DP,SH,PA,
44.2645,-71.0133,Cold River,NH,COLD,NF,603.447.2166,14,NH,,,forestcamping.com/dow/eastern/wm.htm,720,0,RS,North Chatham,,,,
43.871,-71.630316,Campton,NH,CAMP,NF,603.536.6100,58,NH,,DW,forestcamping.com/dow/eastern/wm.htm,721,0,RS,Campton,,SH,,
44.0068,-71.245,Blackberry Crossing,NH,BLAC,NF,,26,NH,VT,,forestcamping.com/dow/eastern/wm.htm,722,0,NR,Conway,ND,NS,,
44.0487,-71.561,Big Rock,NH,BIGR,NF,,28,NH,VT,,forestcamping.com/dow/eastern/wm.htm,723,0,NR,Lincoln,ND,NS,,
43.11485,-71.33054,Bear Brook State Park,NH,BEAR,SP,603.485.9869,96,NH,,DW,www.nhstateparks.org/state-parks/alphabetical-order/bear-brook-state-park/,724,0,RS,Allenstown,DP,SH,PA,
44.2687,-71.0214,Basin,NH,BASI,NF,,21,NH,,,forestcamping.com/dow/eastern/wm.htm,725,0,NR,Gilead,ND,NS,,
46.867759,-102.843443,Patterson Lake Rec Area,ND,PATT,CP,701.456.2056,,E,,DW,www.ndtourism.com/wherestay/accommodations/accommodation-details.asp?AID=1362,726,1,,Dickinson,DP,SH,,L$
